[{"round":1214,"stores":[{"name":"인터넷 복권판매사이트","region":"서울","addr":"동행복권(dhlottery.co.kr)","lat":37.482063,"lng":127.015788,"auto":"수동"},{"name":"해인복권","region":"서울","addr":"서울 도봉구 도당로9길 63 나동 1층  ","lat":37.662682,"lng":127.031088,"auto":"자동"},{"name":"행운 로또복권","region":"부산","addr":"부산 해운대구 좌동로 107-10  ","lat":35.173563,"lng":129.176687,"auto":"수동"},{"name":"왕대박","region":"부산","addr":"부산 동래구 여고로113번길 59-4  ","lat":35.201071,"lng":129.074097,"auto":"자동"},{"name":"알리바이","region":"광주","addr":"광주 광산구 수등로 253 1층 알리바이  ","lat":35.185387,"lng":126.836674,"auto":"수동"},{"name":"알리바이","region":"광주","addr":"광주 광산구 수등로 253 1층 알리바이  ","lat":35.185387,"lng":126.836674,"auto":"수동"},{"name":"희망복권","region":"경기","addr":"경기 평택시 만세로 1776 성경마트 동일건물  ","lat":37.009361,"lng":127.107999,"auto":"수동"},{"name":"수원역로또맛집","region":"경기","addr":"경기 수원시 팔달구 덕영대로 907 1층 6호(매산로1가)  ","lat":37.267674,"lng":127.000509,"auto":"자동"},{"name":"명품복권방","region":"전남","addr":"전남 목포시 섶나루길 122 상가 123호  ","lat":34.810541,"lng":126.418938,"auto":"자동"},{"name":"복권파는집","region":"경남","addr":"경남 창원시 마산회원구 3·15대로 765  ","lat":35.240227,"lng":128.583643,"auto":"자동"},{"name":"터미널복권판매점","region":"경남","addr":"경남 창원시 마산회원구 3·15대로 756 1층 102호(마산시외버스터미널)  ","lat":35.239157,"lng":128.583531,"auto":"자동"},{"name":"양산노다지복권방","region":"경남","addr":"경남 양산시 북안남2길 52 복권판매점  ","lat":35.348255,"lng":129.03783,"auto":"자동"}]},{"round":1213,"stores":[{"name":"묵동식품","region":"서울","addr":"서울 중랑구 동일로 919  ","lat":37.612457,"lng":127.07704,"auto":"자동"},{"name":"월드24시","region":"서울","addr":"서울 은평구 통일로 855-15  ","lat":37.61925,"lng":126.919788,"auto":"자동"},{"name":"예지행복","region":"서울","addr":"서울 양천구 월정로 59 가동 101호  ","lat":37.524852,"lng":126.841315,"auto":"자동"},{"name":"인터넷 복권판매사이트","region":"서울","addr":"동행복권(dhlottery.co.kr)","lat":37.482063,"lng":127.015788,"auto":"자동"},{"name":"믿음복권방","region":"서울","addr":"서울 서대문구 가좌로4길 32 1층  ","lat":37.585701,"lng":126.92487,"auto":"자동"},{"name":"화신상사","region":"부산","addr":"부산 동래구 삼성대길 48  ","lat":35.205096,"lng":129.081764,"auto":"자동"},{"name":"메트로센터점","region":"대구","addr":"대구 중구 달구벌대로 지하 2100 메트로센터C412호  ","lat":35.865822,"lng":128.593146,"auto":"자동"},{"name":"럭키로또","region":"대구","addr":"대구 수성구 수성로 127 1층 (상동)  ","lat":35.836869,"lng":128.611627,"auto":"자동"},{"name":"제일슈퍼","region":"인천","addr":"인천 연수구 앵고개로 242 제일상가112호  ","lat":37.408647,"lng":126.670812,"auto":"자동"},{"name":"복권백화점","region":"경기","addr":"경기 파주시 평화로 70  ","lat":37.763587,"lng":126.76989,"auto":"자동"},{"name":"즉석복권방","region":"경기","addr":"경기 수원시 영통구 산남로 2  ","lat":37.263892,"lng":127.04714,"auto":"자동"},{"name":"골드러시","region":"경기","addr":"경기 성남시 중원구 도촌로7번길 4-2 102호  ","lat":37.414916,"lng":127.150207,"auto":"자동"},{"name":"드림 복권판매점","region":"경기","addr":"경기 부천시 계남로 297 1층 102호  ","lat":37.504391,"lng":126.781298,"auto":"자동"},{"name":"다복복권","region":"충북","addr":"충북 진천군 덕금로 792 1층 (세븐일레븐내)  ","lat":36.911865,"lng":127.505735,"auto":"수동"},{"name":"팡팡복권방","region":"전북","addr":"전북 익산시 인북로 99  ","lat":35.93792,"lng":126.952636,"auto":"자동"},{"name":"돈나무 복권","region":"전북","addr":"전북 군산시 공단대로 612  ","lat":35.973173,"lng":126.680293,"auto":"수동"},{"name":"별별마트","region":"경북","addr":"경북 성주군 성주로 4190 1층 복권방  ","lat":35.881259,"lng":128.370988,"auto":"수동"},{"name":"만물가게","region":"제주","addr":"제주 제주시 신성로10길 3  ","lat":33.496492,"lng":126.530049,"auto":"자동"}]},{"round":1212,"stores":[{"name":"묵동식품","region":"서울","addr":"서울 중랑구 동일로 919  ","lat":37.612457,"lng":127.07704,"auto":"자동"},{"name":"인터넷 복권판매사이트","region":"서울","addr":"동행복권(dhlottery.co.kr)","lat":37.482063,"lng":127.015788,"auto":"수동"},{"name":"지원물산","region":"서울","addr":"서울 노원구 공릉로 108  ","lat":37.619831,"lng":127.078092,"auto":"자동"},{"name":"모라행운로또","region":"부산","addr":"부산 사상구 백양대로 924 상가 2동 102호  ","lat":35.187908,"lng":128.991763,"auto":"자동"},{"name":"동해마트","region":"부산","addr":"부산 동래구 사직북로57번길 58 애니타임 내  ","lat":35.19739,"lng":129.058832,"auto":"자동"},{"name":"로또복권방","region":"인천","addr":"인천 부평구 광장로 16 지하 2층 223호  ","lat":37.489663,"lng":126.722663,"auto":"자동"},{"name":"대전하이퍼","region":"대전","addr":"대전 중구 보문산로 76  ","lat":36.305204,"lng":127.388824,"auto":"자동"},{"name":"씨유 파주신촌점","region":"경기","addr":"경기 파주시 소라지로 79-3  ","lat":37.797233,"lng":126.78968,"auto":"자동"},{"name":"로또N삭스","region":"경기","addr":"경기 의정부시 오목로205번길 39 골든프라자101호  ","lat":37.745481,"lng":127.096453,"auto":"자동"},{"name":"노다지복권방","region":"경기","addr":"경기 시흥시 복지로 103-1 1층상가  ","lat":37.448232,"lng":126.792061,"auto":"자동"},{"name":"행운복권","region":"경기","addr":"경기 군포시 대야1로 3 1동  ","lat":37.326381,"lng":126.918909,"auto":"자동"},{"name":"복권전문점(고흥)","region":"전남","addr":"전남 고흥군 고흥로 1740-2 복권전문점  ","lat":34.607405,"lng":127.284641,"auto":"자동"}]},{"round":1211,"stores":[{"name":"쌍둥이네복권방","region":"서울","addr":"서울 중구 청파로 451-1 1층  ","lat":37.559642,"lng":126.968063,"auto":"자동"},{"name":"그린슈퍼","region":"서울","addr":"서울 동대문구 왕산로 138  ","lat":37.57798,"lng":127.038632,"auto":"자동"},{"name":"복드림 복권방","region":"부산","addr":"부산 북구 기찰로 155 (덕천동)  ","lat":35.214548,"lng":129.021586,"auto":"자동"},{"name":"오천억복권방","region":"광주","addr":"광주 서구 상무대로 1087  ","lat":35.152922,"lng":126.880727,"auto":"자동"},{"name":"현대마트점","region":"광주","addr":"광주 서구 상무대로 871 1층(쌍촌동)  ","lat":35.150517,"lng":126.857294,"auto":"자동"},{"name":"8888로또","region":"대전","addr":"대전 서구 월평북로 77  ","lat":36.362502,"lng":127.376811,"auto":"자동"},{"name":"화랑로또판매점","region":"경기","addr":"경기 화성시 푸른들판로 660  ","lat":37.167335,"lng":126.895711,"auto":"자동"},{"name":"씨유용인청덕중앙점","region":"경기","addr":"경기 용인시 기흥구 구성3로28번길 12 101호  ","lat":37.2946,"lng":127.15173,"auto":"자동"},{"name":"홈런1등로또","region":"경기","addr":"경기 수원시 장안구 송원로 13 1층(송죽동)  ","lat":37.297135,"lng":127.005301,"auto":"자동"},{"name":"영유통(로또복권)","region":"전북","addr":"전북 군산시 미룡로 45  ","lat":35.944041,"lng":126.689947,"auto":"자동"},{"name":"영유통(로또복권)","region":"전북","addr":"전북 군산시 미룡로 45  ","lat":35.944041,"lng":126.689947,"auto":"자동"},{"name":"나눔로또편의점","region":"전남","addr":"전남 광양시 공영로 90  ","lat":34.935659,"lng":127.699065,"auto":"자동"},{"name":"나나 복권판매소","region":"경남","addr":"경남 양산시 상북중앙로 319 복권판매점  ","lat":35.412201,"lng":129.059186,"auto":"수동"},{"name":"대우 행복 복권","region":"경남","addr":"경남 거제시 장승포로 11 1층  ","lat":34.867861,"lng":128.725333,"auto":"자동"}]},{"round":1210,"stores":[{"name":"씨스페이스 응암역점","region":"서울","addr":"서울 은평구 연서로 9 센터폴리스 1층 107호  ","lat":37.600133,"lng":126.91551,"auto":"수동"},{"name":"인터넷 복권판매사이트","region":"서울","addr":"동행복권(dhlottery.co.kr)","lat":37.482063,"lng":127.015788,"auto":"자동"},{"name":"인터넷 복권판매사이트","region":"서울","addr":"동행복권(dhlottery.co.kr)","lat":37.482063,"lng":127.015788,"auto":"수동"},{"name":"인터넷 복권판매사이트","region":"서울","addr":"동행복권(dhlottery.co.kr)","lat":37.482063,"lng":127.015788,"auto":"수동"},{"name":"용꿈돼지꿈","region":"서울","addr":"서울 마포구 마포대로 112-5  ","lat":37.544729,"lng":126.952212,"auto":"자동"},{"name":"소망복권","region":"서울","addr":"서울 구로구 경인로35길 83 1층 101호(고척동)  ","lat":37.500151,"lng":126.852353,"auto":"수동"},{"name":"행운식품","region":"서울","addr":"서울 관악구 신원로3길 21  ","lat":37.481879,"lng":126.927148,"auto":"자동"},{"name":"부일카서비스","region":"부산","addr":"부산 동구 자성로133번길 35  ","lat":35.140016,"lng":129.063069,"auto":"자동"},{"name":"미라클","region":"인천","addr":"인천 서구 심곡로49번길 2 1층  ","lat":37.542197,"lng":126.675377,"auto":"수동"},{"name":"베스토아(용전2호)","region":"대전","addr":"대전 동구 동서대로 1689 복합터미널서관 1층 59호  ","lat":36.350379,"lng":127.436635,"auto":"자동"},{"name":"행복충전소","region":"경기","addr":"경기 평택시 탄현로 332-2  ","lat":37.081799,"lng":127.056377,"auto":"수동"},{"name":"탄현대박로또복권","region":"경기","addr":"경기 파주시 방촌로 661 1층상가 좌측  ","lat":37.803196,"lng":126.718256,"auto":"자동"},{"name":"다니엘사","region":"경기","addr":"경기 안산시 단원구 원선1로 38 101호  ","lat":37.326073,"lng":126.804168,"auto":"수동"},{"name":"다니엘사","region":"경기","addr":"경기 안산시 단원구 원선1로 38 101호  ","lat":37.326073,"lng":126.804168,"auto":"수동"},{"name":"공원슈퍼","region":"경기","addr":"경기 수원시 장안구 팔달로 255 1층(영화동)  ","lat":37.28874,"lng":127.01298,"auto":"자동"},{"name":"로또명당","region":"경기","addr":"경기 남양주시 금강로 1557 104호  ","lat":37.729761,"lng":127.192978,"auto":"반자동"},{"name":"신의 축복","region":"경기","addr":"경기 남양주시 사릉로34번길 24 (금곡동) 7호  ","lat":37.63618,"lng":127.211069,"auto":"자동"},{"name":"리맥스복권방","region":"경기","addr":"경기 구리시 경춘로 239 리맥스프라자 앞 가판대(인창동 676-1)  ","lat":37.601614,"lng":127.141629,"auto":"수동"},{"name":"로또명당 일산점","region":"경기","addr":"경기 고양시 일산서구 일중로15번길 86 101호  ","lat":37.682958,"lng":126.770155,"auto":"자동"},{"name":"천하명당복권방","region":"충남","addr":"충남 홍성군 조양로 180  ","lat":36.60072,"lng":126.66951,"auto":"자동"},{"name":"대광복권판매점","region":"전남","addr":"전남 강진군 중앙로 83 1층  ","lat":34.63793,"lng":126.766631,"auto":"자동"},{"name":"왕대박복권방","region":"경북","addr":"경북 문경시 중앙로 15  ","lat":36.588123,"lng":128.192926,"auto":"수동"},{"name":"로또플렉스 시티세븐점","region":"경남","addr":"경남 창원시 성산구 원이대로 320 1층 S-108호(더시티세븐)  ","lat":35.240393,"lng":128.653998,"auto":"자동"},{"name":"드림복권","region":"경남","addr":"경남 김해시 장유로 184 엠파이어상가일관 101호  ","lat":35.206815,"lng":128.806015,"auto":"자동"}]},{"round":1209,"stores":[{"name":"어썸위크","region":"서울","addr":"서울 중구 퇴계로87길 41 1층  ","lat":37.56741,"lng":127.020949,"auto":"수동"},{"name":"갑부복권판매점","region":"서울","addr":"서울 용산구 대사관로 80  ","lat":37.533059,"lng":127.006836,"auto":"수동"},{"name":"광나루복권방","region":"서울","addr":"서울 광진구 아차산로 591  ","lat":37.546142,"lng":127.104883,"auto":"자동"},{"name":"청구마트","region":"대구","addr":"대구 북구 검단로 34 청구아파트상가108동102호  ","lat":35.900477,"lng":128.6171,"auto":"자동"},{"name":"동인천황금로또","region":"인천","addr":"인천 중구 참외전로 110 1층  ","lat":37.476524,"lng":126.630583,"auto":"자동"},{"name":"대박신화복권판매점","region":"인천","addr":"인천 미추홀구 인하로 267  ","lat":37.448309,"lng":126.677798,"auto":"자동"},{"name":"복권나라(중흥점)","region":"광주","addr":"광주 북구 우치로 26-1  ","lat":35.169683,"lng":126.911217,"auto":"자동"},{"name":"알리바이","region":"광주","addr":"광주 광산구 수등로 253 1층 알리바이  ","lat":35.185387,"lng":126.836674,"auto":"자동"},{"name":"다다복권","region":"세종","addr":"세종  충현로 52 A동 9호  ","lat":36.593758,"lng":127.298277,"auto":"반자동"},{"name":"올인 (all in)","region":"경기","addr":"경기 화성시 3.1만세로 1147  ","lat":37.135285,"lng":126.910612,"auto":"자동"},{"name":"1등로또","region":"경기","addr":"경기 화성시 동탄대로14길 5-33 101호  ","lat":37.1852,"lng":127.103264,"auto":"자동"},{"name":"명성복권방","region":"경기","addr":"경기 화성시 경기대로 1043  ","lat":37.208467,"lng":127.034302,"auto":"수동"},{"name":"로또휴게실","region":"경기","addr":"경기 용인시 기흥구 용구대로 1885  ","lat":37.256385,"lng":127.10432,"auto":"자동"},{"name":"좋은날","region":"경기","addr":"경기 수원시 팔달구 팔달문로 165 104호(우만동)  ","lat":37.283273,"lng":127.033996,"auto":"수동"},{"name":"해븐복권방","region":"경기","addr":"경기 수원시 영통구 동수원로537번길 57 1층 103호  ","lat":37.274833,"lng":127.045908,"auto":"수동"},{"name":"해븐복권방","region":"경기","addr":"경기 수원시 영통구 동수원로537번길 57 1층 103호  ","lat":37.274833,"lng":127.045908,"auto":"수동"},{"name":"로또복권두정점","region":"충남","addr":"충남 천안시 서북구 두정로 251 대원빌딩104호  ","lat":36.833517,"lng":127.144988,"auto":"자동"},{"name":"대박마트","region":"충남","addr":"충남 천안시 동남구 봉서8길 13 봉명청솔아파트상가103호  ","lat":36.810989,"lng":127.132511,"auto":"수동"},{"name":"명당로또 풍남문점","region":"전북","addr":"전북 전주시 완산구 풍남문2길 34  ","lat":35.813528,"lng":127.147048,"auto":"자동"},{"name":"동남슈퍼","region":"전북","addr":"전북 부안군 번영로 173  ","lat":35.727224,"lng":126.739161,"auto":"자동"},{"name":"코리아25옥계점","region":"경북","addr":"경북 구미시 산호대로25길 18-4  ","lat":36.138366,"lng":128.416492,"auto":"자동"},{"name":"진양호","region":"경남","addr":"경남 진주시 남강로 58 1층  ","lat":35.162824,"lng":128.039569,"auto":"반자동"}]},{"round":1208,"stores":[{"name":"가로판매점","region":"서울","addr":"서울 영등포구 양평로 46 가판  ","lat":37.534465,"lng":126.901596,"auto":"자동"},{"name":"인터넷 복권판매사이트","region":"서울","addr":"동행복권(dhlottery.co.kr)","lat":37.482063,"lng":127.015788,"auto":"자동"},{"name":"고척대박복권&카페","region":"서울","addr":"서울 구로구 경인로47길 68 1층(고척동)  ","lat":37.501954,"lng":126.864761,"auto":"자동"},{"name":"왕대박 복권판매점","region":"대전","addr":"대전 유성구 문화원로 54 서은빌딩 102호(궁동)  ","lat":36.359674,"lng":127.341684,"auto":"자동"},{"name":"로또복권","region":"경기","addr":"경기 오산시 성호새싹길 11  ","lat":37.14982,"lng":127.06984,"auto":"자동"},{"name":"지에스25 안성칠곡","region":"경기","addr":"경기 안성시 만세로 1182 지에스25 안성칠곡  ","lat":37.04363,"lng":127.15039,"auto":"자동"}]},{"round":1207,"stores":[{"name":"편의점사랑","region":"서울","addr":"서울 강서구 곰달래로25길 57 1층  ","lat":37.533107,"lng":126.848271,"auto":"수동"},{"name":"편의점사랑","region":"서울","addr":"서울 강서구 곰달래로25길 57 1층  ","lat":37.533107,"lng":126.848271,"auto":"수동"},{"name":"천하명당초량점","region":"부산","addr":"부산 동구 중앙대로221번길 3  ","lat":35.116899,"lng":129.040132,"auto":"자동"},{"name":"후연로또점","region":"인천","addr":"인천 계양구 황어로 130 일부호  ","lat":37.579363,"lng":126.734754,"auto":"수동"},{"name":"로또명당진하점","region":"울산","addr":"울산 울주군 해맞이로 1578  ","lat":35.382608,"lng":129.342323,"auto":"자동"},{"name":"로또카페","region":"경기","addr":"경기 평택시 관광특구로 13 1층102호  ","lat":37.067241,"lng":127.060533,"auto":"자동"},{"name":"행운복권방","region":"경기","addr":"경기 의정부시 충의로 55  ","lat":37.73674,"lng":127.087119,"auto":"자동"},{"name":"대박복권방","region":"경기","addr":"경기 안산시 단원구 신길중앙로1길 40 101호  ","lat":37.336107,"lng":126.762265,"auto":"자동"},{"name":"삼성복권방","region":"경기","addr":"경기 동두천시 어수로 100-1  ","lat":37.902187,"lng":127.053619,"auto":"자동"},{"name":"고양행복복권","region":"경기","addr":"경기 고양시 덕양구 삼송로 142  ","lat":37.652288,"lng":126.889803,"auto":"자동"},{"name":"영월로또명당","region":"강원","addr":"강원 영월군 중앙로 44  ","lat":37.183348,"lng":128.468467,"auto":"자동"},{"name":"행운의명당로-토토","region":"충북","addr":"충북 청주시 서원구 모충로 36  ","lat":36.624869,"lng":127.46841,"auto":"자동"},{"name":"옥천로또","region":"충북","addr":"충북 옥천군 삼양로 8 세븐일레븐  ","lat":36.308055,"lng":127.563054,"auto":"수동"},{"name":"대산슈퍼","region":"충남","addr":"충남 천안시 동남구 복구정3길 1  ","lat":36.76989,"lng":127.250208,"auto":"수동"},{"name":"터미널분식","region":"충남","addr":"충남 부여군 부장대로 65  ","lat":36.280715,"lng":126.909622,"auto":"자동"},{"name":"제일마트","region":"전북","addr":"전북 군산시 진포로 145  ","lat":35.971556,"lng":126.732848,"auto":"자동"},{"name":"대청행복복권","region":"경남","addr":"경남 김해시 대청로 121 대청프라자 B동 104호  ","lat":35.185768,"lng":128.797913,"auto":"자동"}]},{"round":1206,"stores":[{"name":"에스비 상사","region":"서울","addr":"서울 중구 퇴계로86길 29 1층  ","lat":37.564253,"lng":127.019804,"auto":"반자동"},{"name":"대박천하복권방","region":"서울","addr":"서울 은평구 연서로 150 1층 1호  ","lat":37.603518,"lng":126.91597,"auto":"수동"},{"name":"로또킹","region":"서울","addr":"서울 영등포구 영중로 2 1층(영등포동3가)  ","lat":37.516742,"lng":126.906749,"auto":"자동"},{"name":"신세계슈퍼","region":"서울","addr":"서울 영등포구 대림로 191  ","lat":37.497769,"lng":126.898289,"auto":"자동"},{"name":"복권세계","region":"서울","addr":"서울 동작구 신대방길 8  ","lat":37.487953,"lng":126.912154,"auto":"수동"},{"name":"잉크와복권","region":"서울","addr":"서울 강서구 가로공원로76가길 12  ","lat":37.533069,"lng":126.839625,"auto":"자동"},{"name":"청솔서점","region":"부산","addr":"부산 사하구 하신번영로 195  ","lat":35.098823,"lng":128.958967,"auto":"자동"},{"name":"대운로또(씨스페이스)","region":"경기","addr":"경기 화성시 사랑길 90 456호  ","lat":37.078716,"lng":126.823053,"auto":"자동"},{"name":"로또육사오","region":"경기","addr":"경기 안산시 상록구 일동로 22 원영빌딩1층106호  ","lat":37.310066,"lng":126.868883,"auto":"수동"},{"name":"우성 명당 복권방","region":"경기","addr":"경기 안산시 상록구 본오로 133 우성아파트상가 114호  ","lat":37.2973,"lng":126.86652,"auto":"수동"},{"name":"불티나","region":"강원","addr":"강원 춘천시 후석로462번길 94-1 1층  ","lat":37.890952,"lng":127.751973,"auto":"자동"},{"name":"스타복권판매점","region":"강원","addr":"강원 춘천시 방송길 104 1층 104호  ","lat":37.867528,"lng":127.720836,"auto":"수동"},{"name":"로또명당인주점","region":"충남","addr":"충남 아산시 서해로 519-2  ","lat":36.877837,"lng":126.898279,"auto":"자동"},{"name":"천만불로또복권","region":"전북","addr":"전북 남원시 용성로 207  ","lat":35.41606,"lng":127.39496,"auto":"반자동"},{"name":"화신복권방","region":"제주","addr":"제주 제주시 중앙로 183  ","lat":33.502878,"lng":126.527851,"auto":"반자동"}]},{"round":1205,"stores":[{"name":"부일카서비스","region":"부산","addr":"부산 동구 자성로133번길 35  ","lat":35.140016,"lng":129.063069,"auto":"자동"},{"name":"평생꽃길대연점","region":"부산","addr":"부산 남구 수영로266번길 37  ","lat":35.135071,"lng":129.097181,"auto":"자동"},{"name":"기장슈퍼","region":"부산","addr":"부산 기장군 차성동로 69  ","lat":35.243927,"lng":129.2165,"auto":"자동"},{"name":"황금대박점","region":"대구","addr":"대구 수성구 지범로 62 1층 복권판매점  ","lat":35.826052,"lng":128.627488,"auto":"자동"},{"name":"복권명당신기점","region":"대구","addr":"대구 동구 율하동로24길 49  ","lat":35.869595,"lng":128.707683,"auto":"자동"},{"name":"대박복권판매점","region":"인천","addr":"인천 남동구 구월남로 190 101호  ","lat":37.452673,"lng":126.71069,"auto":"자동"},{"name":"행운강림 로또방","region":"경기","addr":"경기 안산시 상록구 반석로 54 126동 167호  ","lat":37.296514,"lng":126.8657,"auto":"자동"},{"name":"별복권방","region":"충북","addr":"충북 청주시 흥덕구 덕암로114번길 28 1층  ","lat":36.650028,"lng":127.46118,"auto":"자동"},{"name":"운수대통복권방","region":"충남","addr":"충남 천안시 동남구 대흥로 122 중앙시장 입구  ","lat":36.800491,"lng":127.149261,"auto":"수동"},{"name":"명당","region":"경남","addr":"경남 진주시 동부로 1356 1층 일부호  ","lat":35.187308,"lng":128.224824,"auto":"자동"}]},{"round":1204,"stores":[{"name":"가판100호","region":"서울","addr":"서울 중구  을지로 113-4 ","lat":37.566442,"lng":126.990742,"auto":"자동"},{"name":"방이먹자골목 천하명당 일등복권","region":"서울","addr":"서울 송파구  오금로11길 24 제1층 주차장 옆","lat":37.514875,"lng":127.109814,"auto":"수동"},{"name":"행운로또복권방","region":"서울","addr":"서울 성북구  보국문로 34-1 ","lat":37.607548,"lng":127.01053,"auto":"자동"},{"name":"인현동지하가판","region":"인천","addr":"인천 중구  참외전로 132-2 동인천역 78번 출구 지하1층 가판대","lat":37.475266,"lng":126.631026,"auto":"자동"},{"name":"대박복권방","region":"인천","addr":"인천 부평구  영성로 50-1 1층","lat":37.52011,"lng":126.744979,"auto":"수동"},{"name":"로터리 클럽","region":"인천","addr":"인천 미추홀구  인하로 250-1 1층","lat":37.448122,"lng":126.675943,"auto":"자동"},{"name":"한빛3단지 천지인","region":"경기","addr":"경기 파주시  와석순환로 66 103호","lat":37.710321,"lng":126.751759,"auto":"자동"},{"name":"초이스 복권판매점","region":"경기","addr":"경기 안성시  석정2길 20 1층 104호","lat":37.009188,"lng":127.260886,"auto":"자동"},{"name":"로또편의점","region":"경기","addr":"경기 김포시  김포한강11로 288-32 골든스퀘어101호","lat":37.654293,"lng":126.684182,"auto":"자동"},{"name":"썬마트","region":"충북","addr":"충북 청주시 흥덕구  진재로23번길 25 ","lat":36.632607,"lng":127.428105,"auto":"자동"},{"name":"로또복권방","region":"충북","addr":"충북 청주시 청원구  내수로 725-1 디지털프라자 옆","lat":36.726449,"lng":127.535784,"auto":"자동"},{"name":"스마일로또","region":"충북","addr":"충북 제천시  신죽하로 83-11 1층 GS25 편의점 내","lat":37.159932,"lng":128.222053,"auto":"자동"},{"name":"희망복권방","region":"충남","addr":"충남 예산군  예산로 241 1층","lat":36.680324,"lng":126.851384,"auto":"수동"},{"name":"로또명당인주점","region":"충남","addr":"충남 아산시  서해로 519-2 ","lat":36.877837,"lng":126.898279,"auto":"자동"},{"name":"대박마트복권방","region":"충남","addr":"충남 아산시  음봉로 844 태화상가1층103호","lat":36.826485,"lng":127.09925,"auto":"자동"},{"name":"조례로또복권방","region":"전남","addr":"전남 순천시  봉화2길 58 조례로또복권방","lat":34.95842,"lng":127.518151,"auto":"자동"},{"name":"제일복권","region":"경남","addr":"경남 양산시  양산역2길 7 103호 복권판매점","lat":35.335593,"lng":129.027971,"auto":"반자동"},{"name":"복슈퍼","region":"경남","addr":"경남 김해시  가야로 19 푸르지오상가 111호 복권판매점","lat":35.27011,"lng":128.86241,"auto":"자동"}]},{"round":1203,"stores":[{"name":"대왕로또","region":"부산","addr":"부산 영도구  남항로 35 ","lat":35.088992,"lng":129.040274,"auto":"수동"},{"name":"일등커피로또판매점","region":"대구","addr":"대구 수성구  동대구로 371 1층일등커피숍내","lat":35.863515,"lng":128.626417,"auto":"자동"},{"name":"와이에스컴퍼니","region":"대구","addr":"대구 남구  두류공원로 105 1층","lat":35.845771,"lng":128.567673,"auto":"자동"},{"name":"대박슈퍼","region":"인천","addr":"인천 부평구  경원대로 1438 ","lat":37.490838,"lng":126.728645,"auto":"수동"},{"name":"지에스25(울산우정선경점)로또","region":"울산","addr":"울산 중구  우정3길 12 ","lat":35.559051,"lng":129.311269,"auto":"자동"},{"name":"동성슈퍼","region":"울산","addr":"울산 울주군  북문1길 7 101호","lat":35.570964,"lng":129.120394,"auto":"자동"},{"name":"터미널식품","region":"경기","addr":"경기 의정부시  동일로 640 ","lat":37.745458,"lng":127.055053,"auto":"자동"},{"name":"행운복권방","region":"경기","addr":"경기 의정부시  충의로 55 ","lat":37.73674,"lng":127.087119,"auto":"자동"},{"name":"일주일행복로또(파장매표소)","region":"경기","addr":"경기 수원시 장안구  파장로82번길 3 ","lat":37.30682,"lng":126.991824,"auto":"반자동"},{"name":"행운모아 복권방","region":"경기","addr":"경기 수원시 권선구  서수원로577번길 305 제상가동 비205호(금곡동 수원모아미래도센트럴타운2단지)","lat":37.27444,"lng":126.94018,"auto":"수동"},{"name":"만물전파사","region":"경기","addr":"경기 남양주시  마석중앙로 74 ","lat":37.652022,"lng":127.307845,"auto":"자동"},{"name":"동하인터내셔날","region":"경기","addr":"경기 남양주시  진건오남로884번길 23 105106호","lat":37.70544,"lng":127.198086,"auto":"수동"},{"name":"영앤로또","region":"경기","addr":"경기 남양주시  다산중앙로123번길 47 메트로3단지 상기 106호","lat":37.622903,"lng":127.147575,"auto":"자동"},{"name":"두근두근로또복권","region":"경기","addr":"경기 고양시 일산동구  일산로 453 1층 106호","lat":37.673713,"lng":126.776267,"auto":"자동"},{"name":"행복점빵","region":"경기","addr":"경기 고양시 덕양구  지축1로 41 108호","lat":37.648683,"lng":126.91496,"auto":"수동"},{"name":"노다지복권","region":"강원","addr":"강원 횡성군  문정로 52 ","lat":37.488536,"lng":127.988677,"auto":"수동"},{"name":"진평양행","region":"강원","addr":"강원 강릉시  임영로 107 ","lat":37.751261,"lng":128.894075,"auto":"자동"},{"name":"행복한복권방","region":"전북","addr":"전북 전주시 덕진구  혁신로 465 ","lat":35.854501,"lng":127.065911,"auto":"자동"},{"name":"행복한복권방","region":"전북","addr":"전북 전주시 덕진구  혁신로 465 ","lat":35.854501,"lng":127.065911,"auto":"자동"},{"name":"황금알복권","region":"전남","addr":"전남 광양시  광포로 39 1층 (광영동)","lat":34.962803,"lng":127.722842,"auto":"수동"},{"name":"행복로또방","region":"경남","addr":"경남 김해시  김해대로2529번길 31 100-3호 복권판매점","lat":35.231109,"lng":128.902906,"auto":"수동"}]},{"round":1202,"stores":[{"name":"태릉시장복권방","region":"서울","addr":"서울 중랑구  중랑역로 47 ","lat":37.598118,"lng":127.07667,"auto":"자동"},{"name":"성지로또","region":"서울","addr":"서울 송파구  마천로7길 6 대림아파트상가115호","lat":37.508422,"lng":127.12793,"auto":"자동"},{"name":"사당","region":"서울","addr":"서울 관악구  과천대로 953 ","lat":37.475728,"lng":126.981447,"auto":"수동"},{"name":"월드로또복권 판매점","region":"서울","addr":"서울 강남구  논현로63길 16 1층 102호","lat":37.493008,"lng":127.039143,"auto":"자동"},{"name":"좋은터","region":"인천","addr":"인천 계양구  효서로 204 1층","lat":37.527792,"lng":126.718528,"auto":"수동"},{"name":"로또까페","region":"인천","addr":"인천 계양구  길마로 35 1층 102호","lat":37.534029,"lng":126.70959,"auto":"수동"},{"name":"머니머니","region":"경기","addr":"경기 시흥시  월곶중앙로14번길 100 ","lat":37.394456,"lng":126.739424,"auto":"자동"},{"name":"드림복권방","region":"경기","addr":"경기 수원시 권선구  정조로 515 ","lat":37.255268,"lng":127.011056,"auto":"자동"},{"name":"대운복권","region":"경기","addr":"경기 성남시 중원구  성남대로 1149 ","lat":37.432376,"lng":127.128661,"auto":"자동"},{"name":"선경로또","region":"충북","addr":"충북 제천시  용두대로 59 1층","lat":37.136219,"lng":128.199362,"auto":"자동"},{"name":"땅끝 로또","region":"전남","addr":"전남 해남군  산정1길 111 세븐일레븐","lat":34.36887,"lng":126.5191,"auto":"수동"},{"name":"KOREA마트","region":"경북","addr":"경북 구미시  임은길 64 ","lat":36.088995,"lng":128.369546,"auto":"자동"},{"name":"씨스페이스 어방점","region":"경남","addr":"경남 김해시  인제로170번길 15-6 편의점 내","lat":35.244052,"lng":128.905816,"auto":"수동"},{"name":"씨스페이스 어방점","region":"경남","addr":"경남 김해시  인제로170번길 15-6 편의점 내","lat":35.244052,"lng":128.905816,"auto":"수동"}]},{"round":1201,"stores":[{"name":"신가로판매점","region":"서울","addr":"서울 중구  세종대로 26 ","lat":37.558703,"lng":126.974421,"auto":"자동"},{"name":"인터넷 복권판매사이트","region":"서울","addr":"동행복권(dhlottery.co.kr)","lat":37.482063,"lng":127.015788,"auto":"수동"},{"name":"신일","region":"서울","addr":"서울 강서구  까치산로 177 1층 101호","lat":37.553062,"lng":126.853342,"auto":"자동"},{"name":"굴러들어온 복권","region":"서울","addr":"서울 강남구  논현로72길 20 1층 102호","lat":37.495803,"lng":127.041161,"auto":"수동"},{"name":"백금당","region":"부산","addr":"부산 중구  중구로29번길 26 ","lat":35.100512,"lng":129.027307,"auto":"자동"},{"name":"천하명당복권방","region":"광주","addr":"광주 서구  풍암순환로 5 대주파크빌아파트상가1층102호","lat":35.126018,"lng":126.876624,"auto":"자동"},{"name":"세종로또방","region":"세종","addr":"세종   용포로 32 ","lat":36.461653,"lng":127.280682,"auto":"수동"},{"name":"복권판매점","region":"경기","addr":"경기 광명시  광명로 908 (광명동)","lat":37.479883,"lng":126.854944,"auto":"자동"},{"name":"비하로또명당","region":"충북","addr":"충북 청주시 흥덕구  2순환로 1052 1층 휴대폰싸게파는집 내부","lat":36.640918,"lng":127.421908,"auto":"자동"},{"name":"동남운천복권","region":"충북","addr":"충북 청주시 상당구  중고개로125번길 17 ","lat":36.61543,"lng":127.517414,"auto":"자동"},{"name":"로또로복권","region":"전북","addr":"전북 전주시 완산구  모악로 4729 ","lat":35.791546,"lng":127.131295,"auto":"자동"},{"name":"대불로또판매점","region":"전남","addr":"전남 영암군  대불주거1로9길 3 1층 101호","lat":34.751569,"lng":126.455391,"auto":"수동"},{"name":"복권나라동성점","region":"전남","addr":"전남 순천시  연향번영길 94 동성아파트 상가113호","lat":34.950097,"lng":127.518946,"auto":"자동"},{"name":"로또복권","region":"대구","addr":"대구 군위군  중앙길 32 ","lat":36.231489,"lng":128.567491,"auto":"자동"},{"name":"노다지구미황상","region":"경북","addr":"경북 구미시  수출대로 555 ","lat":36.110914,"lng":128.425717,"auto":"수동"},{"name":"행운로또복권방","region":"경남","addr":"경남 창원시 진해구  용원로 89 ","lat":35.098916,"lng":128.81893,"auto":"자동"},{"name":"영화복권","region":"경남","addr":"경남 창원시 진해구  안청남로 14 ","lat":35.101071,"lng":128.804502,"auto":"수동"},{"name":"제이에이치마켓","region":"경남","addr":"경남 창원시 의창구  의창대로 914 ","lat":35.278957,"lng":128.690462,"auto":"자동"},{"name":"터미널복권판매점","region":"경남","addr":"경남 창원시 마산회원구  3·15대로 756 1층 102호(마산시외버스터미널)","lat":35.239157,"lng":128.583531,"auto":"자동"}]},{"round":1200,"stores":[{"name":"씨유 망우점2","region":"서울","addr":"서울 중랑구  망우로 410 1층","lat":37.598976,"lng":127.097613,"auto":"자동"},{"name":"인터넷 복권판매사이트","region":"서울","addr":"동행복권(dhlottery.co.kr)","lat":37.482063,"lng":127.015788,"auto":"자동"},{"name":"살맛나는 세상","region":"서울","addr":"서울 동대문구  한천로46길 56-4 GS25시 휘경주공점","lat":37.581578,"lng":127.071366,"auto":"자동"},{"name":"행복한복권","region":"대구","addr":"대구 수성구  지범로31길 7 우측상가(지산동)","lat":35.82267,"lng":128.63895,"auto":"자동"},{"name":"L마트","region":"인천","addr":"인천 서구  승학로 528 아카데미프라자107호","lat":37.565592,"lng":126.678182,"auto":"자동"},{"name":"황금돼지","region":"인천","addr":"인천 미추홀구  인주대로 370 ","lat":37.451294,"lng":126.677475,"auto":"자동"},{"name":"로또방","region":"경기","addr":"경기 포천시  구절초로 44 ","lat":37.897347,"lng":127.200543,"auto":"수동"},{"name":"바로전산","region":"경기","addr":"경기 광명시  오리로 1000 (광명동)","lat":37.480212,"lng":126.852363,"auto":"자동"},{"name":"탑","region":"강원","addr":"강원 원주시  천사로 94 1층","lat":37.348212,"lng":127.935626,"auto":"자동"},{"name":"제천시현로또점","region":"충북","addr":"충북 제천시  의림대로 340 GS25","lat":37.157442,"lng":128.212204,"auto":"수동"},{"name":"행운의집로또","region":"충남","addr":"충남 아산시  북수북길 7-4 1층","lat":36.775273,"lng":127.067583,"auto":"자동"},{"name":"용남복권","region":"경남","addr":"경남 통영시  남해안대로 440 ","lat":34.868935,"lng":128.444387,"auto":"자동"}]},{"round":1199,"stores":[{"name":"여명슈퍼마켓","region":"서울","addr":"서울 성북구  장위로15길 4 ","lat":37.614313,"lng":127.041474,"auto":"자동"},{"name":"인터넷 복권판매사이트","region":"서울","addr":"동행복권(dhlottery.co.kr)","lat":37.482063,"lng":127.015788,"auto":"수동"},{"name":"행운 로또복권","region":"부산","addr":"부산 해운대구  좌동로 107-10 ","lat":35.173563,"lng":129.176687,"auto":"자동"},{"name":"돈벼락맞는곳","region":"부산","addr":"부산 해운대구  양운로 55 두산위브센티움상가102호","lat":35.168194,"lng":129.176243,"auto":"수동"},{"name":"돈벼락맞는곳","region":"부산","addr":"부산 해운대구  양운로 55 두산위브센티움상가102호","lat":35.168194,"lng":129.176243,"auto":"수동"},{"name":"대박로또","region":"대전","addr":"대전 중구  대종로 174 1층","lat":36.30706,"lng":127.447524,"auto":"자동"},{"name":"신의한수","region":"경기","addr":"경기 화성시  떡전골로 86 103호","lat":37.20643,"lng":127.03415,"auto":"자동"},{"name":"새말편의점","region":"경기","addr":"경기 안성시  신령로 209 ","lat":37.027338,"lng":127.222709,"auto":"자동"},{"name":"온누리로또","region":"경기","addr":"경기 수원시 권선구  세권로 122 1층 102호","lat":37.257131,"lng":127.017456,"auto":"자동"},{"name":"돈벼락","region":"경기","addr":"경기 부천시  범안로 220 제근린생활시설2동 1층 103호","lat":37.460417,"lng":126.812408,"auto":"수동"},{"name":"복권판매점","region":"경기","addr":"경기 고양시 일산서구  일산로 502 분산상가동 1층 4호(일산동 후곡마을14단지)","lat":37.676172,"lng":126.771956,"auto":"자동"},{"name":"복권명당","region":"강원","addr":"강원 태백시  황지로 32 ","lat":37.161563,"lng":128.990885,"auto":"수동"},{"name":"진평양행","region":"강원","addr":"강원 강릉시  임영로 107 ","lat":37.751261,"lng":128.894075,"auto":"자동"},{"name":"참깨열쇠.복권","region":"전북","addr":"전북 전주시 완산구  용리로 43 1층","lat":35.798842,"lng":127.114664,"auto":"수동"},{"name":"행복나눔","region":"전남","addr":"전남 담양군  무정로 42 ","lat":35.308443,"lng":126.98514,"auto":"자동"},{"name":"로또명당","region":"경북","addr":"경북 의성군  중앙길 10-1 1층","lat":36.34501,"lng":128.69894,"auto":"자동"},{"name":"승원롯또판매","region":"경남","addr":"경남 창원시 의창구  천주로 506 복권판매점","lat":35.301727,"lng":128.601962,"auto":"자동"}]},{"round":1198,"stores":[{"name":"종합가판제141호","region":"서울","addr":"서울 중구  퇴계로 447 황학 아크로타워","lat":37.566042,"lng":127.021722,"auto":"자동"},{"name":"현대복권방","region":"서울","addr":"서울 동대문구  답십리로 9 1층","lat":37.578469,"lng":127.043528,"auto":"자동"},{"name":"윤","region":"인천","addr":"인천 미추홀구  능해길 4 1층 1호(용현동)","lat":37.459592,"lng":126.637971,"auto":"자동"},{"name":"당첨복권방","region":"광주","addr":"광주 북구  안산로 30 (오치동)","lat":35.189821,"lng":126.902237,"auto":"수동"},{"name":"나눔로또CU목상점","region":"대전","addr":"대전 대덕구  대덕대로1448번길 71 CU편의점","lat":36.444781,"lng":127.410484,"auto":"수동"},{"name":"명당골복권방","region":"경기","addr":"경기 수원시 권선구  동수원로242번길 15 104호","lat":37.251094,"lng":127.03546,"auto":"자동"},{"name":"로또수현점","region":"강원","addr":"강원 원주시  강변로 315 1층","lat":37.335837,"lng":127.961796,"auto":"수동"},{"name":"영약국","region":"충남","addr":"충남 금산군  인삼로 104 ","lat":36.10224,"lng":127.493086,"auto":"자동"},{"name":"효자로또판매점","region":"전북","addr":"전북 전주시 완산구  우전로 337 103호","lat":35.824669,"lng":127.101654,"auto":"자동"},{"name":"행복한복권방","region":"전북","addr":"전북 전주시 덕진구  혁신로 465 ","lat":35.854501,"lng":127.065911,"auto":"자동"}]},{"round":1197,"stores":[{"name":"인터넷 복권판매사이트","region":"서울","addr":"동행복권(dhlottery.co.kr)","lat":37.482063,"lng":127.015788,"auto":"자동"},{"name":"오케이상사","region":"서울","addr":"서울 서초구  신반포로 176 센트럴시티내100호매점","lat":37.505552,"lng":127.003566,"auto":"자동"},{"name":"다람쥐로또","region":"서울","addr":"서울 마포구  동교로 40 1층","lat":37.55247,"lng":126.906721,"auto":"자동"},{"name":"일등","region":"서울","addr":"서울 강동구  양재대로 1500 101호","lat":37.539462,"lng":127.14085,"auto":"자동"},{"name":"하영","region":"인천","addr":"인천 서구  청라에메랄드로 65 아파트 상가 102호","lat":37.531059,"lng":126.655701,"auto":"자동"},{"name":"대전우표사","region":"대전","addr":"대전 동구  중앙로204번길 16-1 ","lat":36.330037,"lng":127.432072,"auto":"자동"},{"name":"로또복권방","region":"경기","addr":"경기 의정부시  평화로 223 ","lat":37.711758,"lng":127.047306,"auto":"수동"},{"name":"로또 복권방","region":"경기","addr":"경기 양주시  칠봉산로 195-7 102호(봉양동)","lat":37.851796,"lng":127.077509,"auto":"수동"},{"name":"정통복권방","region":"경기","addr":"경기 수원시 팔달구  매산로116번길 32 ","lat":37.269805,"lng":127.013933,"auto":"자동"},{"name":"그린마트","region":"경기","addr":"경기 성남시 분당구  대왕판교로 255 107호","lat":37.366467,"lng":127.100828,"auto":"자동"},{"name":"로토피아","region":"경기","addr":"경기 광명시  오리로 371 상가1층102호","lat":37.435595,"lng":126.879249,"auto":"자동"},{"name":"대박찬스","region":"충북","addr":"충북 청주시 흥덕구  가경로161번길 3 ","lat":36.628974,"lng":127.436443,"auto":"자동"},{"name":"춘향로또","region":"전북","addr":"전북 남원시  동림로 102-1 ","lat":35.417068,"lng":127.384929,"auto":"자동"}]},{"round":1196,"stores":[{"name":"행운복권방","region":"서울","addr":"서울 금천구  가산디지털1로 168 A동 103호","lat":37.479959,"lng":126.882484,"auto":"자동"},{"name":"복권마을","region":"서울","addr":"서울 구로구  구로동로 72 ","lat":37.485348,"lng":126.88605,"auto":"자동"},{"name":"하늘복권방","region":"부산","addr":"부산 해운대구  해운대로 814 A동 137호(좌동 세종월드프라자)","lat":35.169577,"lng":129.177677,"auto":"자동"},{"name":"뉴빅마트","region":"부산","addr":"부산 기장군  정관중앙로 48 106호","lat":35.321112,"lng":129.179287,"auto":"자동"},{"name":"복덩이 로또","region":"인천","addr":"인천 연수구  함박뫼로12번길 1 102호","lat":37.418626,"lng":126.671547,"auto":"자동"},{"name":"달려라 복권방","region":"경기","addr":"경기 남양주시  남가로 1821 104호","lat":37.694669,"lng":127.356259,"auto":"자동"},{"name":"100억로또점","region":"경기","addr":"경기 김포시  김포대로 1610 나동 6호","lat":37.663147,"lng":126.658934,"auto":"자동"},{"name":"대박의터","region":"강원","addr":"강원 춘천시  영서로 1786 ","lat":37.836243,"lng":127.760082,"auto":"자동"},{"name":"쿡쿡로또명당","region":"충북","addr":"충북 옥천군  금장로 65 세븐일레븐편의점","lat":36.300303,"lng":127.57118,"auto":"자동"},{"name":"훼미리마트 우아대로점","region":"전북","addr":"전북 전주시 덕진구  건산로 276 ","lat":35.835473,"lng":127.167355,"auto":"자동"},{"name":"행운복권방","region":"전북","addr":"전북 고창군  중앙로 200 ","lat":35.434897,"lng":126.697497,"auto":"자동"},{"name":"복권세상","region":"전남","addr":"전남 목포시  청호로 139 1층 복권세상","lat":34.803902,"lng":126.375846,"auto":"자동"},{"name":"대박드림","region":"경북","addr":"경북 포항시 북구  천마로72번길 7 1층111동107호(양덕동)","lat":36.083181,"lng":129.397797,"auto":"자동"},{"name":"성심상회","region":"경북","addr":"경북 포항시 북구  불종로 78 ","lat":36.038172,"lng":129.368014,"auto":"자동"},{"name":"드림로또","region":"경남","addr":"경남 창원시 진해구  신항4로 49 105호 세븐일레븐","lat":35.087813,"lng":128.817533,"auto":"자동"}]},{"round":1195,"stores":[{"name":"편의점사랑","region":"서울","addr":"서울 강서구  곰달래로25길 57 1층","lat":37.533107,"lng":126.848271,"auto":"자동"},{"name":"금두꺼비 복권방","region":"부산","addr":"부산 동래구  안남로 89-1 1층(안락동)","lat":35.193627,"lng":129.101838,"auto":"자동"},{"name":"제우스테크","region":"대전","addr":"대전 서구  원도안로 30 ","lat":36.306773,"lng":127.348658,"auto":"자동"},{"name":"주택복권방","region":"경기","addr":"경기 용인시 수지구  풍덕천로 144-1 103호","lat":37.323883,"lng":127.09745,"auto":"수동"},{"name":"주몽동명","region":"경기","addr":"경기 용인시 수지구  포은대로 319 중앙빌딩 104호","lat":37.315741,"lng":127.087532,"auto":"자동"},{"name":"똥광 로또 복권방","region":"경기","addr":"경기 안산시 단원구  화랑로 98 바동 102호","lat":37.32695,"lng":126.79981,"auto":"자동"},{"name":"작은신부","region":"충남","addr":"충남 서산시  구진로 6 ","lat":36.936096,"lng":126.43599,"auto":"수동"},{"name":"행복자리","region":"전북","addr":"전북 군산시  칠성1길 33 ","lat":35.958335,"lng":126.673083,"auto":"자동"},{"name":"명당","region":"경남","addr":"경남 진주시  동부로 1356 1층 일부호","lat":35.187308,"lng":128.224824,"auto":"자동"},{"name":"대동복권방","region":"경남","addr":"경남 김해시  월산로 112-57 이마트편의점 좌측 복권판매점","lat":35.206845,"lng":128.80473,"auto":"자동"}]},{"round":1194,"stores":[{"name":"종로3가1호선역2번출구가로판매점82호","region":"서울","addr":"서울 종로구  돈화문로 23 가판","lat":37.570703,"lng":126.991875,"auto":"수동"},{"name":"미나식품(로또판매점)","region":"서울","addr":"서울 강서구  금낭화로 91-12 ","lat":37.573502,"lng":126.810665,"auto":"수동"},{"name":"로또성지","region":"부산","addr":"부산 부산진구  백양관문로 104-1 ","lat":35.168536,"lng":129.028557,"auto":"수동"},{"name":"지에스(GS)25 기장읍내로","region":"부산","addr":"부산 기장군  읍내로94번길 2 ","lat":35.244671,"lng":129.214391,"auto":"수동"},{"name":"씨유 송도점","region":"인천","addr":"인천 연수구  인권로 9 1층 CU","lat":37.418643,"lng":126.651442,"auto":"수동"},{"name":"1등복권방","region":"인천","addr":"인천 연수구  해돋이로 168 (송도동 21-13 혜인프라자 104호)","lat":37.395416,"lng":126.645219,"auto":"반자동"},{"name":"희망복권판매점","region":"인천","addr":"인천 서구  보듬5로 5 104호일부","lat":37.594206,"lng":126.612281,"auto":"수동"},{"name":"알리바이","region":"광주","addr":"광주 광산구  수등로 253 1층 알리바이","lat":35.185387,"lng":126.836674,"auto":"수동"},{"name":"황금열쇠복권방","region":"울산","addr":"울산 북구  신기15길 2 ","lat":35.645831,"lng":129.354846,"auto":"수동"},{"name":"행운슈퍼","region":"경기","addr":"경기 화성시  병점3로 37 106호","lat":37.208291,"lng":127.037549,"auto":"수동"},{"name":"황금마트","region":"경기","addr":"경기 평택시  현신3길 5-9 ","lat":36.996081,"lng":127.13491,"auto":"수동"},{"name":"버스표가판점","region":"경기","addr":"경기 안양시 동안구  동안로 125-2 범계역4-1출구앞 버스표가판점","lat":37.389737,"lng":126.951056,"auto":"자동"},{"name":"행복나눔로또","region":"경기","addr":"경기 남양주시  마석로 37 101호","lat":37.654255,"lng":127.306147,"auto":"자동"},{"name":"왕대박복권","region":"강원","addr":"강원 속초시  번영로 142 1층 102호","lat":38.211353,"lng":128.589321,"auto":"수동"},{"name":"속초등대로또복권","region":"강원","addr":"강원 속초시  영금정로 23 ","lat":38.212677,"lng":128.599056,"auto":"자동"},{"name":"왕대박복권전문점","region":"강원","addr":"강원 동해시  중앙로 234 이주민상가1층18호","lat":37.521708,"lng":129.115005,"auto":"수동"},{"name":"복드림로또판매점","region":"충북","addr":"충북 충주시  첨단산업9로 13 1충","lat":36.999499,"lng":127.834923,"auto":"반자동"},{"name":"예스복권방","region":"충남","addr":"충남 천안시 동남구  천안천공원6길 14-5 1층","lat":36.795994,"lng":127.147993,"auto":"자동"},{"name":"153로또판매점","region":"충남","addr":"충남 아산시  배방로 57-23 ","lat":36.772295,"lng":127.057344,"auto":"수동"},{"name":"로또로복권","region":"전북","addr":"전북 전주시 완산구  모악로 4729 ","lat":35.791546,"lng":127.131295,"auto":"수동"},{"name":"행운복권방","region":"전북","addr":"전북 부안군  번영로 109 ","lat":35.72662,"lng":126.732553,"auto":"수동"},{"name":"부안복권방","region":"전북","addr":"전북 부안군  번영로 135 ","lat":35.726229,"lng":126.735427,"auto":"수동"},{"name":"농산물직판장","region":"전북","addr":"전북 군산시  백토로 128 ","lat":35.96753,"lng":126.704875,"auto":"수동"},{"name":"복권나라","region":"경북","addr":"경북 포항시 북구  장량로140번길 9 ","lat":36.080859,"lng":129.396027,"auto":"수동"},{"name":"로타리상회","region":"경북","addr":"경북 구미시  산호대로 199 상가1층4호","lat":36.10139,"lng":128.385038,"auto":"수동"},{"name":"로또복권판매 초전점","region":"경남","addr":"경남 진주시  대신로457번길 9 1층","lat":35.201273,"lng":128.11505,"auto":"반자동"},{"name":"로또행운마트","region":"경남","addr":"경남 김해시  능동로 177 복권판매점","lat":35.203791,"lng":128.810017,"auto":"자동"},{"name":"범섬로또","region":"제주","addr":"제주 서귀포시  월드컵로 169 ","lat":33.234808,"lng":126.506781,"auto":"수동"}]},{"round":1193,"stores":[{"name":"오거리복권방","region":"서울","addr":"서울 용산구  소월로20길 12 ","lat":37.545995,"lng":126.985242,"auto":"수동"},{"name":"행운복권","region":"서울","addr":"서울 영등포구  도신로65길 2 1층(신길동)","lat":37.512916,"lng":126.917453,"auto":"수동"},{"name":"지에스(GS)25 신길센트럴점","region":"서울","addr":"서울 영등포구  도림로 308 1층","lat":37.505124,"lng":126.902777,"auto":"자동"},{"name":"스파","region":"서울","addr":"서울 노원구  동일로 1493 주공10단지종합상가111","lat":37.661658,"lng":127.057872,"auto":"자동"},{"name":"미나식품(로또판매점)","region":"서울","addr":"서울 강서구  금낭화로 91-12 ","lat":37.573502,"lng":126.810665,"auto":"자동"},{"name":"메트로센터점","region":"대구","addr":"대구 중구  달구벌대로 지하 2100 메트로센터C412호","lat":35.865822,"lng":128.593146,"auto":"수동"},{"name":"코리아슈퍼","region":"대구","addr":"대구 달서구  달구벌대로 1130 1층  코리아마트내","lat":35.850814,"lng":128.490927,"auto":"자동"},{"name":"희망복권","region":"인천","addr":"인천 서구  가정로151번길 11 삼성홈플러스가좌점1층","lat":37.497605,"lng":126.670707,"auto":"자동"},{"name":"보경복권","region":"울산","addr":"울산 북구  명촌6길 7 ","lat":35.558064,"lng":129.360286,"auto":"수동"},{"name":"복권백화점","region":"경기","addr":"경기 파주시  평화로 70 ","lat":37.763587,"lng":126.76989,"auto":"자동"},{"name":"조은하루","region":"경기","addr":"경기 용인시 처인구  낙은로 22 ","lat":37.23934,"lng":127.19856,"auto":"수동"},{"name":"소망복권판매점","region":"경기","addr":"경기 김포시  청송로 26 102-1호","lat":37.647757,"lng":126.666701,"auto":"수동"},{"name":"고양월드식품복권","region":"경기","addr":"경기 고양시 덕양구  혜음로 8 삼라마이다스프라자 제1층 제115호","lat":37.701104,"lng":126.901793,"auto":"수동"},{"name":"유성로또복권상회","region":"강원","addr":"강원 원주시  평원로 45 1층","lat":37.350078,"lng":127.951437,"auto":"자동"},{"name":"합천우리복권방","region":"경남","addr":"경남 합천군  핫들2로 8 1층","lat":35.56843,"lng":128.165395,"auto":"자동"},{"name":"돈벼락 복권","region":"제주","addr":"제주 제주시  흥운길 12 ","lat":33.510106,"lng":126.511345,"auto":"자동"}]},{"round":1192,"stores":[{"name":"로또킹","region":"서울","addr":"서울 영등포구  영중로 2 1층(영등포동3가)","lat":37.516742,"lng":126.906749,"auto":"자동"},{"name":"명신사","region":"서울","addr":"서울 마포구  월드컵로 97 ","lat":37.557252,"lng":126.908637,"auto":"수동"},{"name":"장안평역 3번출구 가판대","region":"서울","addr":"서울 동대문구  장한로 6-1 장한평역 3번출구 앞 가판대","lat":37.561967,"lng":127.065106,"auto":"자동"},{"name":"삼성마트","region":"서울","addr":"서울 강남구  선릉로 636 102호(키스톤빌딩)","lat":37.513322,"lng":127.042919,"auto":"자동"},{"name":"청솔서점","region":"부산","addr":"부산 사하구  하신번영로 195 ","lat":35.098823,"lng":128.958967,"auto":"수동"},{"name":"돈벼락맞는곳","region":"부산","addr":"부산 사상구  낙동대로 910 마트월드 A-160호","lat":35.141866,"lng":128.970994,"auto":"수동"},{"name":"돈벼락맞는곳","region":"부산","addr":"부산 사상구  낙동대로 910 마트월드 A-160호","lat":35.141866,"lng":128.970994,"auto":"수동"},{"name":"돈벼락맞는곳","region":"부산","addr":"부산 사상구  낙동대로 910 마트월드 A-160호","lat":35.141866,"lng":128.970994,"auto":"수동"},{"name":"로또명당(유가테크노점)","region":"대구","addr":"대구 달성군  테크노상업로 108 1동 1층 114호(테크노에이스)","lat":35.693246,"lng":128.461135,"auto":"자동"},{"name":"광주공항로또","region":"광주","addr":"광주 광산구  상무대로 411 1층","lat":35.144407,"lng":126.810887,"auto":"자동"},{"name":"미보라복권방","region":"울산","addr":"울산 중구  염포로 15 ","lat":35.559396,"lng":129.343236,"auto":"수동"},{"name":"로또25시","region":"울산","addr":"울산 남구  수암로288번길 1 1층","lat":35.521146,"lng":129.336028,"auto":"자동"},{"name":"동탄호수복권","region":"경기","addr":"경기 화성시  동탄순환대로 127-5 1층 101호","lat":37.166089,"lng":127.10728,"auto":"자동"},{"name":"율암25시편의점","region":"경기","addr":"경기 화성시  시청로 822 ","lat":37.166356,"lng":126.881749,"auto":"반자동"},{"name":"바른","region":"경기","addr":"경기 하남시  신장로 68 ","lat":37.53573,"lng":127.210053,"auto":"자동"},{"name":"천하명당","region":"경기","addr":"경기 파주시  방촌로 1719-68 좋은빌딩2 107호","lat":37.866949,"lng":126.783605,"auto":"자동"},{"name":"일번가","region":"경기","addr":"경기 용인시 기흥구  서천서로20번길 4-6 102동","lat":37.240195,"lng":127.075992,"auto":"반자동"},{"name":"남문시장","region":"경기","addr":"경기 수원시 팔달구  수원천로255번길 6 89호(영동 영동시장)","lat":37.277484,"lng":127.018637,"auto":"자동"},{"name":"마두5번출구가판로또","region":"경기","addr":"경기 고양시 일산동구  중앙로 1200 ","lat":37.653871,"lng":126.777106,"auto":"자동"},{"name":"유니로또","region":"강원","addr":"강원 원주시  행구로 45 1층","lat":37.341587,"lng":127.960792,"auto":"자동"},{"name":"터미널복권","region":"충북","addr":"충북 충주시  봉계1길 49 충주터미널1층","lat":36.981136,"lng":127.915026,"auto":"수동"},{"name":"씨유 율량칸타빌 4차점","region":"충북","addr":"충북 청주시 청원구  율중로 19 편의점","lat":36.660393,"lng":127.50668,"auto":"자동"},{"name":"해수로또","region":"충북","addr":"충북 청주시 상당구  산성로 22-1 ","lat":36.62615,"lng":127.499379,"auto":"자동"},{"name":"일등대박복권방","region":"충북","addr":"충북 진천군  중앙동로 74-1 1층","lat":36.856535,"lng":127.445156,"auto":"수동"},{"name":"베스트올수성점","region":"전북","addr":"전북 정읍시  수성2로 28 ","lat":35.581693,"lng":126.854418,"auto":"자동"},{"name":"또니로또연구소 한꼴토토","region":"전남","addr":"전남 순천시  장선배기1길 6-53 1층","lat":34.953398,"lng":127.524225,"auto":"자동"},{"name":"씨스페이스 경주세방매점","region":"경북","addr":"경북 경주시  산업로 4447 (용강동)","lat":35.877206,"lng":129.226492,"auto":"자동"},{"name":"조선복권","region":"경남","addr":"경남 창원시 의창구  남산로 111 1층 GS25편의점","lat":35.254298,"lng":128.620301,"auto":"자동"},{"name":"대청행복복권","region":"경남","addr":"경남 김해시  대청로 121 대청프라자 B동 104호","lat":35.185768,"lng":128.797913,"auto":"자동"}]},{"round":1191,"stores":[{"name":"인터넷 복권판매사이트","region":"서울","addr":"동행복권(dhlottery.co.kr)","lat":37.482063,"lng":127.015788,"auto":"자동"},{"name":"사당","region":"서울","addr":"서울 관악구  과천대로 953 ","lat":37.475728,"lng":126.981447,"auto":"자동"},{"name":"도로시","region":"서울","addr":"서울 강동구  아리수로93길 19 108호","lat":37.56538,"lng":127.174118,"auto":"수동"},{"name":"운좋은날","region":"서울","addr":"서울 강동구  풍성로 187 102호","lat":37.53006,"lng":127.132873,"auto":"수동"},{"name":"운좋은날","region":"서울","addr":"서울 강동구  풍성로 187 102호","lat":37.53006,"lng":127.132873,"auto":"수동"},{"name":"운좋은날","region":"서울","addr":"서울 강동구  풍성로 187 102호","lat":37.53006,"lng":127.132873,"auto":"수동"},{"name":"운좋은날","region":"서울","addr":"서울 강동구  풍성로 187 102호","lat":37.53006,"lng":127.132873,"auto":"수동"},{"name":"운좋은날","region":"서울","addr":"서울 강동구  풍성로 187 102호","lat":37.53006,"lng":127.132873,"auto":"수동"},{"name":"행운나눔","region":"부산","addr":"부산 사하구  사하로 204 ","lat":35.099873,"lng":128.993473,"auto":"자동"},{"name":"우정식품","region":"부산","addr":"부산 동래구  온천장로 33 1층","lat":35.215308,"lng":129.079249,"auto":"자동"},{"name":"메트로센터점","region":"대구","addr":"대구 중구  달구벌대로 지하 2100 메트로센터C412호","lat":35.865822,"lng":128.593146,"auto":"자동"},{"name":"반달커피대구침산점","region":"대구","addr":"대구 북구  칠성남로 100 대구역한라하우젠트센텀상가102호","lat":35.878113,"lng":128.591699,"auto":"자동"},{"name":"행운로또 굴화점","region":"울산","addr":"울산 울주군  굴화2길 26 1층","lat":35.554587,"lng":129.260514,"auto":"수동"},{"name":"씨유 방어행복점","region":"울산","addr":"울산 동구  꽃바위로 35 ","lat":35.49189,"lng":129.41109,"auto":"반자동"},{"name":"리버스 편의점","region":"경기","addr":"경기 하남시  미사대로 520 현대지식산업센터 한강미사2차 D동 125호","lat":37.558866,"lng":127.20458,"auto":"자동"},{"name":"북부슈퍼","region":"경기","addr":"경기 의정부시  가능로125번길 22 ","lat":37.747972,"lng":127.044771,"auto":"자동"},{"name":"행복충전소","region":"경기","addr":"경기 안양시 만안구  안양로 228 1층","lat":37.39359,"lng":126.9261,"auto":"수동"},{"name":"GS25석문센트럴점","region":"충남","addr":"충남 당진시  산단7로 94-9 106107호 GS편의점 내","lat":36.999359,"lng":126.59489,"auto":"자동"}]},{"round":1190,"stores":[{"name":"돈벼락맞는곳","region":"부산","addr":"부산 동구  조방로49번길 18-1 ","lat":35.139168,"lng":129.05995,"auto":"자동"},{"name":"금은동복권방","region":"경기","addr":"경기 용인시 기흥구  중부대로 679-6 ","lat":37.266741,"lng":127.136942,"auto":"수동"},{"name":"로또판매선부점","region":"경기","addr":"경기 안산시 단원구  선부광장로 27 122-2호","lat":37.33619,"lng":126.81017,"auto":"자동"},{"name":"흥양마중물","region":"강원","addr":"강원 원주시  치악로 2335 1층","lat":37.383351,"lng":127.97573,"auto":"수동"},{"name":"부영상회","region":"충북","addr":"충북 충주시  칠금중앙로 38 1층","lat":36.982098,"lng":127.917965,"auto":"수동"},{"name":"희망복권방","region":"충북","addr":"충북 청주시 흥덕구  월명로 150 ","lat":36.647872,"lng":127.454095,"auto":"자동"}]},{"round":1189,"stores":[{"name":"중구-가로가판대-37","region":"서울","addr":"서울 중구  남대문로 20-2 ","lat":37.560831,"lng":126.978048,"auto":"자동"},{"name":"인터넷 복권판매사이트","region":"서울","addr":"동행복권(dhlottery.co.kr)","lat":37.482063,"lng":127.015788,"auto":"자동"},{"name":"태양 명당 복권방","region":"서울","addr":"서울 금천구  독산로 211 세진상가103호","lat":37.46546,"lng":126.90202,"auto":"자동"},{"name":"행복드림 복권","region":"인천","addr":"인천 서구  청라라임로 85 판매시설 비동 131호 후면(청라동 청라린스트라우스)","lat":37.535159,"lng":126.653132,"auto":"자동"},{"name":"동키호테편의점","region":"광주","addr":"광주 서구  풍금로38번길 23 ","lat":35.123924,"lng":126.864745,"auto":"자동"},{"name":"영화유통(1등복권방)","region":"울산","addr":"울산 남구  신정로 19 삼성아파트 상가 204-101","lat":35.533833,"lng":129.322055,"auto":"자동"},{"name":"당첨쑥쑥복권","region":"경기","addr":"경기 의왕시  고산로 88 ","lat":37.351465,"lng":126.961398,"auto":"자동"},{"name":"우리로또복권","region":"경기","addr":"경기 연천군  청신로 91 ","lat":37.982901,"lng":127.069128,"auto":"자동"},{"name":"천하명당복권방","region":"경기","addr":"경기 수원시 팔달구  매산로 2 ","lat":37.266611,"lng":127.001847,"auto":"자동"},{"name":"로또야놀자","region":"경북","addr":"경북 경주시  양정로 211 ","lat":35.851509,"lng":129.223982,"auto":"수동"},{"name":"세븐일레븐진해경화위브점","region":"경남","addr":"경남 창원시 진해구  조천로 29 세븐일레븐","lat":35.160302,"lng":128.684787,"auto":"자동"},{"name":"명당","region":"경남","addr":"경남 진주시  동부로 1356 1층 일부호","lat":35.187308,"lng":128.224824,"auto":"자동"},{"name":"목화휴게소","region":"경남","addr":"경남 사천시  사천대로 912 ","lat":35.001799,"lng":128.054159,"auto":"자동"}]},{"round":1188,"stores":[{"name":"천하명당복권방","region":"서울","addr":"서울 송파구  백제고분로41길 7 1층","lat":37.506782,"lng":127.10817,"auto":"수동"},{"name":"또와요로또방","region":"서울","addr":"서울 동대문구  왕산로 270-1 1층","lat":37.584693,"lng":127.05096,"auto":"수동"},{"name":"구일 로또 전자담배","region":"서울","addr":"서울 구로구  구일로8길 63 한신상가 102호","lat":37.496111,"lng":126.87414,"auto":"자동"},{"name":"다시 꿈꾸는 미래 동행복권","region":"부산","addr":"부산 부산진구  백양대로208번길 38-9 상가동13호","lat":35.16136,"lng":129.02825,"auto":"자동"},{"name":"부일카서비스","region":"부산","addr":"부산 동구  자성로133번길 35 ","lat":35.140016,"lng":129.063069,"auto":"자동"},{"name":"로또(카페)","region":"대구","addr":"대구 달서구  대명천로 89 1층","lat":35.83919,"lng":128.549901,"auto":"수동"},{"name":"일등복권편의점","region":"대구","addr":"대구 달서구  대명천로 220 1층","lat":35.842204,"lng":128.53619,"auto":"자동"},{"name":"와따복권방","region":"인천","addr":"인천 서구  검단로 490 1층","lat":37.602299,"lng":126.658599,"auto":"수동"},{"name":"와따복권방","region":"인천","addr":"인천 서구  검단로 490 1층","lat":37.602299,"lng":126.658599,"auto":"수동"},{"name":"대박슈퍼","region":"인천","addr":"인천 부평구  경원대로 1438 ","lat":37.490838,"lng":126.728645,"auto":"수동"},{"name":"대박슈퍼","region":"인천","addr":"인천 부평구  경원대로 1438 ","lat":37.490838,"lng":126.728645,"auto":"수동"},{"name":"대박슈퍼","region":"인천","addr":"인천 부평구  경원대로 1438 ","lat":37.490838,"lng":126.728645,"auto":"수동"},{"name":"대박슈퍼","region":"인천","addr":"인천 부평구  경원대로 1438 ","lat":37.490838,"lng":126.728645,"auto":"수동"},{"name":"대박슈퍼","region":"인천","addr":"인천 부평구  경원대로 1438 ","lat":37.490838,"lng":126.728645,"auto":"수동"},{"name":"성강동인","region":"경기","addr":"경기 하남시  신장로 212 1층 2호","lat":37.543922,"lng":127.198273,"auto":"자동"},{"name":"드림복권전문점","region":"경기","addr":"경기 평택시  평남로 651 ","lat":36.991935,"lng":127.106932,"auto":"수동"},{"name":"하늘로또","region":"경기","addr":"경기 여주시  세종로475번길 2 1층","lat":37.257895,"lng":127.646419,"auto":"수동"},{"name":"하늘로또","region":"경기","addr":"경기 여주시  세종로475번길 2 1층","lat":37.257895,"lng":127.646419,"auto":"수동"},{"name":"하늘로또","region":"경기","addr":"경기 여주시  세종로475번길 2 1층","lat":37.257895,"lng":127.646419,"auto":"수동"},{"name":"하늘로또","region":"경기","addr":"경기 여주시  세종로475번길 2 1층","lat":37.257895,"lng":127.646419,"auto":"수동"},{"name":"하늘로또","region":"경기","addr":"경기 여주시  세종로475번길 2 1층","lat":37.257895,"lng":127.646419,"auto":"수동"},{"name":"행운복권방","region":"경기","addr":"경기 고양시 덕양구  꽃마을로 66 1층105호","lat":37.601262,"lng":126.89335,"auto":"수동"},{"name":"영일대 복권방","region":"경북","addr":"경북 포항시 북구  학전로 26 1층항구동","lat":36.055035,"lng":129.374626,"auto":"자동"},{"name":"동아슈퍼","region":"경남","addr":"경남 김해시  전하로 253 동아그린아파트상가 103동 101호","lat":35.226281,"lng":128.872524,"auto":"수동"}]},{"round":1187,"stores":[{"name":"가든파이브 복권","region":"서울","addr":"서울 송파구  충민로 52 가든파이브웍스 제지1층 제비에프10777-2호","lat":37.477717,"lng":127.122746,"auto":"자동"},{"name":"인터넷 복권판매사이트","region":"서울","addr":"동행복권(dhlottery.co.kr)","lat":37.482063,"lng":127.015788,"auto":"자동"},{"name":"인터넷 복권판매사이트","region":"서울","addr":"동행복권(dhlottery.co.kr)","lat":37.482063,"lng":127.015788,"auto":"수동"},{"name":"셀피아","region":"울산","addr":"울산 북구  무룡로 29 울산광역시 북구 연암동 417-1 1층","lat":35.58109,"lng":129.363573,"auto":"자동"},{"name":"코사마트역전점","region":"경기","addr":"경기 평택시  중앙2로 1 ","lat":36.991992,"lng":127.087217,"auto":"자동"},{"name":"꿈이있는로또","region":"경기","addr":"경기 여주시  경충대로 1490 오일뱅크 주유소","lat":37.21828,"lng":127.531332,"auto":"자동"},{"name":"1번지복권방","region":"경기","addr":"경기 성남시 중원구  희망로 448 1층일부 (금광동)","lat":37.444973,"lng":127.15739,"auto":"자동"},{"name":"하당복권방","region":"전남","addr":"전남 목포시  옥암로 46 ","lat":34.803894,"lng":126.429472,"auto":"자동"},{"name":"나눔로또봉평점","region":"경남","addr":"경남 통영시  도남로 81 ","lat":34.831633,"lng":128.413647,"auto":"수동"},{"name":"진빈레코드","region":"경남","addr":"경남 밀양시  북성로 7 ","lat":35.498558,"lng":128.743291,"auto":"자동"},{"name":"대풍로또판매점","region":"경남","addr":"경남 김해시  번화2로 36 ","lat":35.192285,"lng":128.805245,"auto":"자동"}]},{"round":1186,"stores":[{"name":"보성정보통신","region":"서울","addr":"서울 동대문구  장한로2길 24 ","lat":37.56191,"lng":127.066469,"auto":"반자동"},{"name":"희망드림(동행복권)","region":"서울","addr":"서울 광진구  뚝섬로30길 47 ","lat":37.53488,"lng":127.067548,"auto":"반자동"},{"name":"한국인세계대박복권","region":"인천","addr":"인천 연수구  한나루로197번길 34 ","lat":37.427689,"lng":126.655218,"auto":"자동"},{"name":"미리 대박 복권","region":"대전","addr":"대전 서구  둔산남로105번길 19 ","lat":36.349956,"lng":127.38909,"auto":"수동"},{"name":"네잎클로버","region":"울산","addr":"울산 북구  당수골6길 20 1층","lat":35.634733,"lng":129.360653,"auto":"수동"},{"name":"광성슈퍼","region":"경기","addr":"경기 이천시  단월로 33 ","lat":37.221365,"lng":127.449978,"auto":"자동"},{"name":"씨월드","region":"경기","addr":"경기 남양주시  별내2로 64 109호","lat":37.646427,"lng":127.124878,"auto":"자동"},{"name":"복권마트 & 씨스페이스 홍천점","region":"강원","addr":"강원 홍천군  홍천로 409 1층","lat":37.690258,"lng":127.889472,"auto":"자동"},{"name":"황금알복권방","region":"충북","addr":"충북 진천군  상산로 71 ","lat":36.854686,"lng":127.441871,"auto":"수동"},{"name":"행운복권방 보생당건강원","region":"전북","addr":"전북 익산시  무왕로 1268 ","lat":35.960304,"lng":126.997265,"auto":"자동"},{"name":"일레븐마트무선점","region":"전남","addr":"전남 여수시  성산로 19 ","lat":34.773868,"lng":127.63973,"auto":"자동"},{"name":"행복마트","region":"경북","addr":"경북 김천시  혁신로 185 메타폴리스상가 120호","lat":36.117534,"lng":128.183961,"auto":"수동"},{"name":"창원로또명당","region":"경남","addr":"경남 창원시 성산구  용지로113번길 8 ","lat":35.226367,"lng":128.678266,"auto":"자동"},{"name":"만물할인슈퍼","region":"경남","addr":"경남 창원시 성산구  대정로 145 개나리1차상가107호","lat":35.213181,"lng":128.708493,"auto":"자동"}]},{"round":1185,"stores":[{"name":"하나복권(가로판매점)","region":"서울","addr":"서울 영등포구  여의나루로 42 가로판매점(여의도동)","lat":37.52147,"lng":126.924971,"auto":"자동"},{"name":"천하제일명당","region":"부산","addr":"부산 부산진구  골드테마길 42 ","lat":35.143644,"lng":129.060151,"auto":"자동"},{"name":"뉴빅마트","region":"부산","addr":"부산 기장군  정관중앙로 48 106호","lat":35.321112,"lng":129.179287,"auto":"수동"},{"name":"새희망복권","region":"경기","addr":"경기 화성시  동화새터길 98 106호","lat":37.21728,"lng":126.959713,"auto":"자동"},{"name":"복권나라","region":"경기","addr":"경기 오산시  성호대로93번길 27 ","lat":37.151246,"lng":127.071452,"auto":"자동"},{"name":"천하명당","region":"경기","addr":"경기 안산시 단원구  광덕2로 193-19 113114호","lat":37.31169,"lng":126.83174,"auto":"자동"},{"name":"일등복권방","region":"경기","addr":"경기 시흥시  시청로68번길 4 1층 124호(장현동 장현1엔플러스빌)","lat":37.380481,"lng":126.80052,"auto":"자동"},{"name":"복이만석","region":"경기","addr":"경기 수원시 영통구  덕영대로1555번길 13 106호(영통동 세일빌딩)","lat":37.246785,"lng":127.060795,"auto":"자동"},{"name":"복권천국","region":"경기","addr":"경기 광명시  기아로 6 ","lat":37.436338,"lng":126.880292,"auto":"수동"},{"name":"필로또복권","region":"충남","addr":"충남 서산시  호수공원6로 64 1층","lat":36.77264,"lng":126.450547,"auto":"자동"},{"name":"GMART","region":"경북","addr":"경북 구미시  구미중앙로 57-3 ","lat":36.130029,"lng":128.329052,"auto":"자동"},{"name":"로또통신","region":"경남","addr":"경남 김해시  함박로101번길 22 삼우빌딩104호 복권판매점","lat":35.234216,"lng":128.865837,"auto":"자동"}]},{"round":1184,"stores":[{"name":"5번가 로또","region":"서울","addr":"서울 송파구  올림픽로 249-2 가판(잠실역5번출구 바로 앞)","lat":37.513065,"lng":127.098521,"auto":"자동"},{"name":"오케이상사","region":"서울","addr":"서울 서초구  신반포로 176 센트럴시티내100호매점","lat":37.505552,"lng":127.003566,"auto":"자동"},{"name":"가로판매점","region":"서울","addr":"서울 금천구  시흥대로 480 가판","lat":37.47635,"lng":126.899064,"auto":"수동"},{"name":"천하명당복권방(행운을주는사람들)","region":"부산","addr":"부산 사상구  광장로38번길 25 ","lat":35.161151,"lng":128.980486,"auto":"수동"},{"name":"행운복권방","region":"경기","addr":"경기 포천시  솔모루로 86-1 ","lat":37.828831,"lng":127.147524,"auto":"자동"},{"name":"한방복권","region":"경기","addr":"경기 파주시  경의로 1100 연세프라자104호","lat":37.715324,"lng":126.760116,"auto":"자동"},{"name":"행운복권방","region":"경기","addr":"경기 양평군  용문로 358-1 1층","lat":37.484355,"lng":127.593619,"auto":"수동"},{"name":"안성상회","region":"경기","addr":"경기 안성시  안성맞춤대로 1187 ","lat":37.018613,"lng":127.266987,"auto":"수동"},{"name":"운수대통","region":"경기","addr":"경기 군포시  군포로745번길 24 ","lat":37.370931,"lng":126.941423,"auto":"자동"},{"name":"복권판매점","region":"경기","addr":"경기 광명시  광명로 908 (광명동)","lat":37.479883,"lng":126.854944,"auto":"수동"},{"name":"꿀사랑","region":"충남","addr":"충남 논산시  해월로179번길 10 ","lat":36.206382,"lng":127.086851,"auto":"자동"},{"name":"강경복권방","region":"충남","addr":"충남 논산시  계백로 126-1 ","lat":36.156023,"lng":127.014866,"auto":"자동"},{"name":"역전로또","region":"경북","addr":"경북 구미시  구미중앙로 72 ","lat":36.129061,"lng":128.330608,"auto":"자동"},{"name":"소답시내버스매표소","region":"경남","addr":"경남 창원시 의창구  의안로2번길 17 가판","lat":35.261776,"lng":128.625646,"auto":"자동"},{"name":"로또복권 하대점","region":"경남","addr":"경남 진주시  도동로 188 ","lat":35.18703,"lng":128.122477,"auto":"자동"}]},{"round":1183,"stores":[{"name":"오케이(O.K)로또","region":"서울","addr":"서울 도봉구  우이천로 486-1 ","lat":37.65648,"lng":127.015711,"auto":"자동"},{"name":"자갈치도깨비명당","region":"부산","addr":"부산 중구  자갈치로 33 501502호","lat":35.097173,"lng":129.028312,"auto":"수동"},{"name":"청구마트","region":"대구","addr":"대구 북구  검단로 34 청구아파트상가108동102호","lat":35.900477,"lng":128.6171,"auto":"자동"},{"name":"오천억복권방","region":"광주","addr":"광주 서구  상무대로 1087 ","lat":35.152922,"lng":126.880727,"auto":"자동"},{"name":"돈벼락맞는곳","region":"대전","addr":"대전 서구  복수남로 16 ","lat":36.297783,"lng":127.379573,"auto":"수동"},{"name":"8888로또","region":"대전","addr":"대전 서구  월평북로 77 ","lat":36.362502,"lng":127.376811,"auto":"자동"},{"name":"로또복권슈퍼(국제꽃화원)","region":"경기","addr":"경기 의정부시  동일로 677 101호","lat":37.748564,"lng":127.052819,"auto":"자동"},{"name":"로또복권","region":"경기","addr":"경기 의정부시  신흥로 348 ","lat":37.747251,"lng":127.042856,"auto":"수동"},{"name":"로또휴게실","region":"경기","addr":"경기 용인시 기흥구  용구대로 1885 ","lat":37.256385,"lng":127.10432,"auto":"자동"},{"name":"비휴 로또","region":"경기","addr":"경기 오산시  양산로410번길 10 양산동","lat":37.19544,"lng":127.029957,"auto":"자동"},{"name":"세븐일레븐 평내지원점","region":"경기","addr":"경기 남양주시  경춘로1256번길 6 112113호","lat":37.645949,"lng":127.234365,"auto":"자동"},{"name":"금호 동행복권","region":"전남","addr":"전남 영암군  대불주거로 159 1층","lat":34.752837,"lng":126.457354,"auto":"자동"},{"name":"씨유제주 제일점","region":"제주","addr":"제주 제주시  신산로 16 CU 제일점","lat":33.511852,"lng":126.53152,"auto":"반자동"}]},{"round":1182,"stores":[{"name":"종합가로판매점113호패션TV앞","region":"서울","addr":"서울 중구  을지로 264 ","lat":37.565751,"lng":127.006966,"auto":"자동"},{"name":"꿈이현실로","region":"서울","addr":"서울 중구  청계천로 182 ","lat":37.568574,"lng":126.997749,"auto":"자동"},{"name":"일조로또","region":"서울","addr":"서울 은평구  은평로 101 ","lat":37.600006,"lng":126.919065,"auto":"반자동"},{"name":"행운의집","region":"서울","addr":"서울 강동구  구천면로 222 ","lat":37.540465,"lng":127.129203,"auto":"자동"},{"name":"이유복권","region":"인천","addr":"인천 서구  이음대로 388 117호","lat":37.593077,"lng":126.712703,"auto":"자동"},{"name":"역전복권방","region":"광주","addr":"광주 광산구  상무대로 208 1층","lat":35.137742,"lng":126.79203,"auto":"자동"},{"name":"예가유통","region":"울산","addr":"울산 북구  화동로 6 1층 복권방","lat":35.591359,"lng":129.369016,"auto":"자동"},{"name":"훼미리마트","region":"경기","addr":"경기 포천시  중앙로 148 신읍동","lat":37.899298,"lng":127.205417,"auto":"반자동"},{"name":"아이지에이마트 오산무지개점","region":"경기","addr":"경기 오산시  현충로 95 ","lat":37.160878,"lng":127.077524,"auto":"자동"},{"name":"천하명당","region":"경기","addr":"경기 시흥시  신천3길 26-1 1층1호","lat":37.438893,"lng":126.783292,"auto":"자동"},{"name":"동행복권(로또복권)","region":"경기","addr":"경기 남양주시  퇴계원로 103-1 1층","lat":37.655547,"lng":127.144202,"auto":"자동"},{"name":"송정복권","region":"경기","addr":"경기 군포시  송부로33번길 3-3 101호(도마교동)","lat":37.31574,"lng":126.91756,"auto":"자동"},{"name":"학동복권나라","region":"전남","addr":"전남 여수시  흥국로 6 ","lat":34.763524,"lng":127.663476,"auto":"자동"}]},{"round":1181,"stores":[{"name":"잠실매점","region":"서울","addr":"서울 송파구  올림픽로 269 잠실역 8번출구 앞 가판","lat":37.514446,"lng":127.100711,"auto":"자동"},{"name":"고고GOGO로또","region":"서울","addr":"서울 광진구  자양로15길 34 ","lat":37.535644,"lng":127.081742,"auto":"자동"},{"name":"로터리복권방","region":"부산","addr":"부산 서구  자갈치로 4 ","lat":35.096197,"lng":129.024838,"auto":"자동"},{"name":"빅세일복권방","region":"부산","addr":"부산 부산진구  서면문화로 6 ","lat":35.158302,"lng":129.058097,"auto":"자동"},{"name":"화신상사","region":"부산","addr":"부산 동래구  삼성대길 48 ","lat":35.205096,"lng":129.081764,"auto":"자동"},{"name":"뉴빅마트","region":"부산","addr":"부산 기장군  정관중앙로 48 106호","lat":35.321112,"lng":129.179287,"auto":"수동"},{"name":"뉴빅마트","region":"부산","addr":"부산 기장군  정관중앙로 48 106호","lat":35.321112,"lng":129.179287,"auto":"수동"},{"name":"뉴빅마트","region":"부산","addr":"부산 기장군  정관중앙로 48 106호","lat":35.321112,"lng":129.179287,"auto":"수동"},{"name":"뉴빅마트","region":"부산","addr":"부산 기장군  정관중앙로 48 106호","lat":35.321112,"lng":129.179287,"auto":"수동"},{"name":"뉴빅마트","region":"부산","addr":"부산 기장군  정관중앙로 48 106호","lat":35.321112,"lng":129.179287,"auto":"수동"},{"name":"뉴빅마트","region":"부산","addr":"부산 기장군  정관중앙로 48 106호","lat":35.321112,"lng":129.179287,"auto":"수동"},{"name":"뉴빅마트","region":"부산","addr":"부산 기장군  정관중앙로 48 106호","lat":35.321112,"lng":129.179287,"auto":"수동"},{"name":"뉴빅마트","region":"부산","addr":"부산 기장군  정관중앙로 48 106호","lat":35.321112,"lng":129.179287,"auto":"수동"},{"name":"금집복권","region":"광주","addr":"광주 북구  첨단연신로108번길 134 ","lat":35.208388,"lng":126.86469,"auto":"자동"},{"name":"로또복권방","region":"경기","addr":"경기 의왕시  효행로 42 ","lat":37.351201,"lng":126.973276,"auto":"수동"},{"name":"행운로또","region":"충북","addr":"충북 진천군  대하로 151 106호","lat":36.904202,"lng":127.535525,"auto":"자동"},{"name":"봉서산로또토토","region":"충남","addr":"충남 천안시 서북구  봉명로 25 1층 4호","lat":36.807594,"lng":127.131355,"auto":"수동"}]},{"round":1180,"stores":[{"name":"인터넷 복권판매사이트","region":"서울","addr":"동행복권(dhlottery.co.kr)","lat":37.482063,"lng":127.015788,"auto":"자동"},{"name":"성광복권명당","region":"부산","addr":"부산 연제구  과정로 335 ","lat":35.19,"lng":129.091098,"auto":"자동"},{"name":"내츄럴하우스복권판매점","region":"경기","addr":"경기 평택시  중앙로 1 1층 상가","lat":36.995721,"lng":127.083582,"auto":"자동"},{"name":"행운드림로또&토토","region":"경기","addr":"경기 김포시  초당로16번길 77 1층 106호","lat":37.639789,"lng":126.675149,"auto":"수동"},{"name":"대박","region":"경기","addr":"경기 구리시  안골로103번길 46 ","lat":37.599423,"lng":127.141537,"auto":"자동"},{"name":"백억만로또","region":"강원","addr":"강원 춘천시  퇴계로 15 7B-3L","lat":37.866491,"lng":127.723866,"auto":"자동"},{"name":"오창중앙복권","region":"충북","addr":"충북 청주시 청원구  중심상업로 47 103호","lat":36.715075,"lng":127.428939,"auto":"자동"},{"name":"로또명당인주점","region":"충남","addr":"충남 아산시  서해로 519-2 ","lat":36.877837,"lng":126.898279,"auto":"자동"},{"name":"공단로또명당","region":"경북","addr":"경북 포항시 남구  철강로 200 1층(장흥동)","lat":35.986109,"lng":129.363796,"auto":"자동"},{"name":"공단로또점","region":"경남","addr":"경남 함안군  삼칠로 831 슈퍼 옆 1층","lat":35.360254,"lng":128.485262,"auto":"자동"},{"name":"해보라마트","region":"경남","addr":"경남 김해시  율하7로 22 101호","lat":35.173341,"lng":128.825567,"auto":"자동"}]},{"round":1179,"stores":[{"name":"승보슈퍼","region":"서울","addr":"서울 중구  마장로9길 49-19 ","lat":37.570137,"lng":127.018402,"auto":"수동"},{"name":"가로판매점","region":"서울","addr":"서울 용산구  원효로 179 ","lat":37.536075,"lng":126.962532,"auto":"자동"},{"name":"주황이 복권방","region":"서울","addr":"서울 서초구  사임당로 178 110호","lat":37.492224,"lng":127.029055,"auto":"자동"},{"name":"범일서적","region":"부산","addr":"부산 동구  진시장로 19-2 1층복권방","lat":35.137386,"lng":129.05898,"auto":"반자동"},{"name":"하영","region":"인천","addr":"인천 서구  청라에메랄드로 65 아파트 상가 102호","lat":37.531059,"lng":126.655701,"auto":"수동"},{"name":"하영","region":"인천","addr":"인천 서구  청라에메랄드로 65 아파트 상가 102호","lat":37.531059,"lng":126.655701,"auto":"수동"},{"name":"경춘마트","region":"경기","addr":"경기 남양주시  경춘로992번길 1 ","lat":37.634227,"lng":127.211854,"auto":"수동"},{"name":"로또또","region":"경기","addr":"경기 김포시  봉수대로 1704 102호","lat":37.62097,"lng":126.63304,"auto":"수동"},{"name":"이마트24 용두휴게소","region":"충남","addr":"충남 천안시 동남구  매봉로 210 용두휴게소 이마트24 내","lat":36.748358,"lng":127.309569,"auto":"자동"},{"name":"흥건슈퍼","region":"전북","addr":"전북 전주시 완산구  거마평로 25 흥건슈퍼","lat":35.794404,"lng":127.115781,"auto":"자동"},{"name":"로또복권","region":"전남","addr":"전남 순천시  오천4길 21 111동108호","lat":34.932903,"lng":127.493413,"auto":"자동"},{"name":"복권명당","region":"경북","addr":"경북 구미시  상사동로 163-8 송일빌102호","lat":36.099239,"lng":128.358241,"auto":"자동"},{"name":"믿음사복권방","region":"경남","addr":"경남 함양군  금성길 1 ","lat":35.628477,"lng":127.811999,"auto":"수동"}]},{"round":1178,"stores":[{"name":"복권방","region":"서울","addr":"서울 성북구  동소문로20길 28-4 ","lat":37.591365,"lng":127.016548,"auto":"자동"},{"name":"하이로또","region":"서울","addr":"서울 금천구  금하로 686 ","lat":37.451874,"lng":126.906335,"auto":"수동"},{"name":"복권나라(매곡동)","region":"광주","addr":"광주 북구  서하로 117 101호 (매곡동)","lat":35.187522,"lng":126.893444,"auto":"자동"},{"name":"성호복권방","region":"대전","addr":"대전 대덕구  신일동로 1 ","lat":36.444743,"lng":127.405115,"auto":"수동"},{"name":"세종청사로또","region":"세종","addr":"세종   절재로 194 중앙타운 114호","lat":36.508392,"lng":127.262204,"auto":"반자동"},{"name":"교동복권","region":"강원","addr":"강원 강릉시  솔올로 51 1층 4호(교동 리멕스빌딩)","lat":37.76663,"lng":128.87812,"auto":"자동"},{"name":"청남로또","region":"충북","addr":"충북 청주시 상당구  단재로 742 ","lat":36.565523,"lng":127.509564,"auto":"수동"},{"name":"천안명당병천점","region":"충남","addr":"충남 천안시 동남구  아우내순대길 38 1층 미니스톱 내","lat":36.76074,"lng":127.298821,"auto":"자동"},{"name":"대박마트복권방","region":"충남","addr":"충남 아산시  음봉로 844 태화상가1층103호","lat":36.826485,"lng":127.09925,"auto":"자동"},{"name":"팡팡복권마트.잡화슈퍼","region":"전북","addr":"전북 전주시 덕진구  가리내로 26 ","lat":35.834367,"lng":127.133268,"auto":"자동"},{"name":"왕대박로또","region":"전북","addr":"전북 전주시 덕진구  만성북로 19 조은 프라자 106호","lat":35.849774,"lng":127.077346,"auto":"자동"},{"name":"하나유통","region":"경북","addr":"경북 경산시  공단2로 7 ","lat":35.871767,"lng":128.819978,"auto":"자동"}]},{"round":1177,"stores":[{"name":"온누리복권","region":"서울","addr":"서울 동작구  동작대로 65 1층","lat":37.48237,"lng":126.98159,"auto":"자동"},{"name":"행운로또","region":"부산","addr":"부산 동래구  충렬대로428번길 30 102호 1호","lat":35.195202,"lng":129.104208,"auto":"자동"},{"name":"주택복권방","region":"경기","addr":"경기 안양시 만안구  장내로 106 102호","lat":37.395979,"lng":126.920025,"auto":"자동"},{"name":"노다지복권","region":"강원","addr":"강원 삼척시  중앙시장길 48-49 ","lat":37.442389,"lng":129.16716,"auto":"자동"},{"name":"럭키로또복권판매점","region":"충북","addr":"충북 청주시 상당구  무농정로 10-1 ","lat":36.605875,"lng":127.504284,"auto":"자동"},{"name":"돈보따리","region":"경남","addr":"경남 양산시  서창로 104 복권판매점","lat":35.409954,"lng":129.166728,"auto":"자동"}]},{"round":1176,"stores":[{"name":"스파","region":"서울","addr":"서울 노원구  동일로 1493 주공10단지종합상가111","lat":37.661658,"lng":127.057872,"auto":"자동"},{"name":"돼지복권명당","region":"부산","addr":"부산 기장군  해맞이로 365-1 ","lat":35.326549,"lng":129.276677,"auto":"자동"},{"name":"마치복권","region":"대전","addr":"대전 서구  구봉로 125 ","lat":36.296868,"lng":127.336983,"auto":"자동"},{"name":"복권세상","region":"경기","addr":"경기 여주시  우암로 21-1 1층","lat":37.296847,"lng":127.633061,"auto":"수동"},{"name":"복권세상","region":"경기","addr":"경기 여주시  우암로 21-1 1층","lat":37.296847,"lng":127.633061,"auto":"수동"},{"name":"복권세상","region":"경기","addr":"경기 여주시  우암로 21-1 1층","lat":37.296847,"lng":127.633061,"auto":"수동"},{"name":"복권세상","region":"경기","addr":"경기 여주시  우암로 21-1 1층","lat":37.296847,"lng":127.633061,"auto":"수동"},{"name":"로또통신","region":"경기","addr":"경기 안성시  장기로 36 ","lat":37.005872,"lng":127.267382,"auto":"수동"},{"name":"오늘도로또","region":"경기","addr":"경기 부천시  신흥로 190 1동 1층 120호","lat":37.500646,"lng":126.777242,"auto":"자동"},{"name":"신의 축복","region":"경기","addr":"경기 남양주시  사릉로34번길 24 (금곡동) 7호","lat":37.63618,"lng":127.211069,"auto":"자동"},{"name":"어게인","region":"경기","addr":"경기 고양시 일산동구  중산로 105 현해프라자 113호","lat":37.681396,"lng":126.781327,"auto":"수동"},{"name":"어게인","region":"경기","addr":"경기 고양시 일산동구  중산로 105 현해프라자 113호","lat":37.681396,"lng":126.781327,"auto":"수동"},{"name":"흥건슈퍼","region":"전북","addr":"전북 전주시 완산구  거마평로 25 흥건슈퍼","lat":35.794404,"lng":127.115781,"auto":"자동"}]},{"round":1175,"stores":[{"name":"88수퍼","region":"서울","addr":"서울 금천구  가산로 130 ","lat":37.477162,"lng":126.892107,"auto":"자동"},{"name":"복권방","region":"서울","addr":"서울 광진구  자양로18길 34 ","lat":37.537781,"lng":127.08546,"auto":"자동"},{"name":"행복한 꿈 이야기","region":"서울","addr":"서울 관악구  봉천로 612 1층","lat":37.475621,"lng":126.964981,"auto":"자동"},{"name":"미나식품(로또판매점)","region":"서울","addr":"서울 강서구  금낭화로 91-12 ","lat":37.573502,"lng":126.810665,"auto":"자동"},{"name":"로터리복권방","region":"부산","addr":"부산 서구  자갈치로 4 ","lat":35.096197,"lng":129.024838,"auto":"수동"},{"name":"강서복권방","region":"부산","addr":"부산 사하구  대티로 80 ","lat":35.106761,"lng":129.007959,"auto":"자동"},{"name":"대구연쇄점","region":"부산","addr":"부산 부산진구  중앙대로783번길 8 ","lat":35.162385,"lng":129.062377,"auto":"자동"},{"name":"라이프복권","region":"부산","addr":"부산 동구  고관로 106 1층 137~139호","lat":35.128258,"lng":129.046391,"auto":"수동"},{"name":"GS로또(남대구IC점)","region":"대구","addr":"대구 달서구  성서공단로 346 1층 GS편의점","lat":35.836325,"lng":128.52068,"auto":"반자동"},{"name":"해피+24시편의점","region":"광주","addr":"광주 북구  하서로 330 ","lat":35.204499,"lng":126.873901,"auto":"자동"},{"name":"보람복권방","region":"울산","addr":"울산 남구  화합로194번길 18-1 1층","lat":35.541854,"lng":129.341563,"auto":"수동"},{"name":"코사마트","region":"경기","addr":"경기 부천시  오정로 203 ","lat":37.527082,"lng":126.782593,"auto":"반자동"},{"name":"럭키복권점","region":"강원","addr":"강원 강릉시  강릉대로 305 ","lat":37.763883,"lng":128.901554,"auto":"자동"},{"name":"오사랑복권","region":"충북","addr":"충북 청주시 흥덕구  진재로 42 ","lat":36.634895,"lng":127.429641,"auto":"수동"},{"name":"해수로또","region":"충북","addr":"충북 청주시 상당구  산성로 22-1 ","lat":36.62615,"lng":127.499379,"auto":"자동"},{"name":"금손로또판매점","region":"충남","addr":"충남 당진시  서해로 5772 ","lat":36.898495,"lng":126.628781,"auto":"자동"},{"name":"만복복권","region":"충남","addr":"충남 계룡시  엄사중앙로 93 ","lat":36.28907,"lng":127.241659,"auto":"자동"},{"name":"복권나라","region":"전남","addr":"전남 여수시  중앙로 62 1층","lat":34.739923,"lng":127.734362,"auto":"자동"},{"name":"굿모닝","region":"전남","addr":"전남 순천시  중앙로 220 굿모닝","lat":34.965293,"lng":127.484984,"auto":"수동"},{"name":"천하명당복권판매점","region":"제주","addr":"제주 제주시  서해안로 510 ","lat":33.519501,"lng":126.493521,"auto":"자동"}]},{"round":1174,"stores":[{"name":"신영슈퍼","region":"서울","addr":"서울 강남구  광평로51길 27 삼익아파트상가101호","lat":37.489152,"lng":127.100922,"auto":"수동"},{"name":"해바라기 복권방","region":"부산","addr":"부산 기장군  차성동로25번길 37 가동 100호","lat":35.24015,"lng":129.214432,"auto":"자동"},{"name":"삼성포토랜드","region":"인천","addr":"인천 강화군  북문길 6 ","lat":37.748339,"lng":126.484018,"auto":"수동"},{"name":"로또는내운명","region":"대전","addr":"대전 중구  대종로 277 ","lat":36.311579,"lng":127.437358,"auto":"자동"},{"name":"1등복권방","region":"울산","addr":"울산 울주군  동문길 84 ","lat":35.564197,"lng":129.124609,"auto":"자동"},{"name":"진대박 로또복권방","region":"울산","addr":"울산 동구  대송로 139 ","lat":35.495895,"lng":129.423099,"auto":"수동"},{"name":"진대박 로또복권방","region":"울산","addr":"울산 동구  대송로 139 ","lat":35.495895,"lng":129.423099,"auto":"수동"},{"name":"영24시","region":"울산","addr":"울산 동구  월봉로 60 ","lat":35.493959,"lng":129.424541,"auto":"자동"},{"name":"진대박 로또복권방","region":"울산","addr":"울산 동구  대송로 139 ","lat":35.495895,"lng":129.423099,"auto":"수동"},{"name":"대소원로또","region":"충북","addr":"충북 충주시  중원대로 4373 휴게소내 컨테이너","lat":36.973255,"lng":127.823596,"auto":"자동"},{"name":"파리스뷰티 복권","region":"충남","addr":"충남 천안시 동남구  개목8길 5 102호(파리스뷰티 내)","lat":36.816229,"lng":127.13108,"auto":"수동"},{"name":"대광복권방","region":"전남","addr":"전남 화순군  칠충로 55 대광그린상가동 1층109호","lat":35.055482,"lng":126.977122,"auto":"수동"},{"name":"CU노서점","region":"경북","addr":"경북 경주시  금성로259번길 38 1층 CU 노서점 내","lat":35.841009,"lng":129.20302,"auto":"자동"},{"name":"창신할인마트","region":"경북","addr":"경북 경산시  경산로 136-3 ","lat":35.820924,"lng":128.729019,"auto":"수동"},{"name":"씨유 창원역점","region":"경남","addr":"경남 창원시 의창구  의창대로 66 CU편의점","lat":35.256945,"lng":128.607699,"auto":"자동"}]},{"round":1173,"stores":[{"name":"평안당","region":"서울","addr":"서울 종로구  종로 219 ","lat":37.57123,"lng":127.002186,"auto":"수동"},{"name":"행운복권방","region":"서울","addr":"서울 은평구  서오릉로 10 ","lat":37.602294,"lng":126.926781,"auto":"자동"},{"name":"인터넷 복권판매사이트","region":"서울","addr":"동행복권(dhlottery.co.kr)","lat":37.482063,"lng":127.015788,"auto":"수동"},{"name":"인터넷 복권판매사이트","region":"서울","addr":"동행복권(dhlottery.co.kr)","lat":37.482063,"lng":127.015788,"auto":"수동"},{"name":"인터넷 복권판매사이트","region":"서울","addr":"동행복권(dhlottery.co.kr)","lat":37.482063,"lng":127.015788,"auto":"수동"},{"name":"인터넷 복권판매사이트","region":"서울","addr":"동행복권(dhlottery.co.kr)","lat":37.482063,"lng":127.015788,"auto":"자동"},{"name":"인터넷 복권판매사이트","region":"서울","addr":"동행복권(dhlottery.co.kr)","lat":37.482063,"lng":127.015788,"auto":"수동"},{"name":"인터넷 복권판매사이트","region":"서울","addr":"동행복권(dhlottery.co.kr)","lat":37.482063,"lng":127.015788,"auto":"수동"},{"name":"노다지 노원역점 복권방","region":"서울","addr":"서울 노원구  상계로 78 ","lat":37.656223,"lng":127.063745,"auto":"수동"},{"name":"MS마트","region":"서울","addr":"서울 광진구  광나루로 546 ","lat":37.544514,"lng":127.090131,"auto":"수동"},{"name":"세진전자통신","region":"대구","addr":"대구 서구  서대구로 156 ","lat":35.871897,"lng":128.555208,"auto":"자동"},{"name":"서재강변로또","region":"대구","addr":"대구 달성군  서재로 172 ","lat":35.878706,"lng":128.497475,"auto":"자동"},{"name":"다다복권방","region":"대구","addr":"대구 달서구  월배로 32-1 1층 복권방","lat":35.812384,"lng":128.518733,"auto":"자동"},{"name":"다올공인중개사사무소","region":"인천","addr":"인천 서구  승학로512번길 26-1 1호실","lat":37.563681,"lng":126.677062,"auto":"수동"},{"name":"로또복권","region":"울산","addr":"울산 남구  꽃대나리로 71 ","lat":35.533759,"lng":129.33796,"auto":"자동"},{"name":"희망을주는사람","region":"경기","addr":"경기 용인시 처인구  양지로 111 1층 상가","lat":37.23453,"lng":127.28051,"auto":"자동"},{"name":"복권판매점","region":"경기","addr":"경기 성남시 중원구  성남대로1130번길 3 제1층 제101호","lat":37.4307,"lng":127.1296,"auto":"자동"},{"name":"대박로또","region":"경기","addr":"경기 가평군  중앙로 35 1층","lat":37.827776,"lng":127.515534,"auto":"자동"},{"name":"황금복권방","region":"강원","addr":"강원 원주시  봉화로 74 삼익아파트 상가 105호","lat":37.351143,"lng":127.928952,"auto":"자동"},{"name":"원대박","region":"충북","addr":"충북 음성군  대금로 1064-20 101호","lat":36.979346,"lng":127.554609,"auto":"자동"},{"name":"대산슈퍼","region":"충남","addr":"충남 천안시 동남구  복구정3길 1 ","lat":36.76989,"lng":127.250208,"auto":"수동"},{"name":"내가마트","region":"전남","addr":"전남 순천시  삼산로 98 ","lat":34.97304,"lng":127.493948,"auto":"수동"},{"name":"대동도기상사","region":"경북","addr":"경북 영천시  금완로 30 ","lat":35.960327,"lng":128.931863,"auto":"자동"},{"name":"행운로또","region":"경북","addr":"경북 구미시  들성로 106 1층102호","lat":36.155601,"lng":128.333856,"auto":"자동"}]},{"round":1172,"stores":[{"name":"영광생활유통","region":"서울","addr":"서울 금천구  범안로 1186 ","lat":37.466332,"lng":126.893448,"auto":"자동"},{"name":"매일로또","region":"부산","addr":"부산 부산진구  당감로50번길 6 ","lat":35.166065,"lng":129.039371,"auto":"자동"},{"name":"로또복권방","region":"인천","addr":"인천 부평구  마장로 287 한양프라자 104-1호","lat":37.504132,"lng":126.703003,"auto":"자동"},{"name":"돼지상회","region":"울산","addr":"울산 북구  매산로 92 1층","lat":35.640141,"lng":129.359196,"auto":"자동"},{"name":"일공공일(CU편의점)","region":"경기","addr":"경기 안산시 단원구  예술대학로 82 중앙상가 102호","lat":37.324297,"lng":126.837668,"auto":"자동"},{"name":"도일복권방","region":"경기","addr":"경기 시흥시  도일로 111 ","lat":37.340399,"lng":126.783647,"auto":"수동"},{"name":"황금열매","region":"경기","addr":"경기 성남시 중원구  산성대로 432-1 1층","lat":37.450314,"lng":127.159697,"auto":"자동"},{"name":"대성슈퍼","region":"경기","addr":"경기 김포시  사우중로11번길 7 초원빌딩1층","lat":37.616528,"lng":126.716152,"auto":"반자동"},{"name":"로또복권두정점","region":"충남","addr":"충남 천안시 서북구  두정로 251 대원빌딩104호","lat":36.833517,"lng":127.144988,"auto":"자동"},{"name":"돈나무복권","region":"충남","addr":"충남 논산시  중앙로479번길 3-2 ","lat":36.205411,"lng":127.083574,"auto":"자동"},{"name":"서창복권나라","region":"경남","addr":"경남 양산시  서창서2길 3 ","lat":35.416226,"lng":129.172261,"auto":"수동"},{"name":"천하명당복권방","region":"경남","addr":"경남 거제시  옥포성안로 60 ","lat":34.891695,"lng":128.69491,"auto":"자동"},{"name":"행운&빈센트","region":"제주","addr":"제주 서귀포시  동문로 64 ","lat":33.24906,"lng":126.56697,"auto":"자동"}]},{"round":1171,"stores":[{"name":"센타포인트명동앞복지가판점","region":"서울","addr":"서울 중구  남대문로 84 앞 가판점","lat":37.564681,"lng":126.98284,"auto":"수동"},{"name":"상승플러스","region":"서울","addr":"서울 영등포구  도림로139길 12-1 1층","lat":37.513909,"lng":126.892717,"auto":"자동"},{"name":"인터넷 복권판매사이트","region":"서울","addr":"동행복권(dhlottery.co.kr)","lat":37.482063,"lng":127.015788,"auto":"수동"},{"name":"보람복권","region":"서울","addr":"서울 서대문구  통일로39길 22-58 ","lat":37.589826,"lng":126.941672,"auto":"수동"},{"name":"행운복권방","region":"서울","addr":"서울 도봉구  노해로63길 79 우림빌딩 112호","lat":37.653081,"lng":127.046304,"auto":"수동"},{"name":"송천복권방","region":"부산","addr":"부산 해운대구  선수촌로 108 ","lat":35.203307,"lng":129.119834,"auto":"수동"},{"name":"기장슈퍼","region":"부산","addr":"부산 기장군  차성동로 69 ","lat":35.243927,"lng":129.2165,"auto":"자동"},{"name":"드림복권방","region":"인천","addr":"인천 중구  인중로 97-1 버스정류장 앞 GS편의점 옆","lat":37.464121,"lng":126.633091,"auto":"수동"},{"name":"좋은터","region":"인천","addr":"인천 계양구  효서로 204 1층","lat":37.527792,"lng":126.718528,"auto":"자동"},{"name":"아스타","region":"광주","addr":"광주 서구  상무대로 917 ","lat":35.151358,"lng":126.862302,"auto":"반자동"},{"name":"사랑정보통신","region":"울산","addr":"울산 울주군  온덕2길 20 ","lat":35.435056,"lng":129.310704,"auto":"수동"},{"name":"천하복권방","region":"울산","addr":"울산 동구  전하로 29 ","lat":35.512435,"lng":129.427501,"auto":"수동"},{"name":"도깨비","region":"경기","addr":"경기 하남시  서하남로 136 ","lat":37.514194,"lng":127.158943,"auto":"수동"},{"name":"도깨비","region":"경기","addr":"경기 하남시  서하남로 136 ","lat":37.514194,"lng":127.158943,"auto":"수동"},{"name":"도깨비","region":"경기","addr":"경기 하남시  서하남로 136 ","lat":37.514194,"lng":127.158943,"auto":"수동"},{"name":"둔전행운복권방","region":"경기","addr":"경기 용인시 처인구  포곡로 110 ","lat":37.269218,"lng":127.217643,"auto":"수동"},{"name":"호돌이복권방","region":"경기","addr":"경기 김포시  황금로109번길 80 101호","lat":37.614961,"lng":126.622768,"auto":"반자동"},{"name":"로또매니아","region":"강원","addr":"강원 춘천시  춘천순환로 790 1층","lat":37.909041,"lng":127.752689,"auto":"수동"},{"name":"피씨마트","region":"전북","addr":"전북 군산시  경기장로 20 ","lat":35.96469,"lng":126.75007,"auto":"수동"},{"name":"여수대박복권","region":"전남","addr":"전남 여수시  강남9길 24 ","lat":34.718848,"lng":127.752793,"auto":"수동"},{"name":"지에스(GS)25 신진주시티점","region":"경남","addr":"경남 진주시  개양로 100 107동 상가106호 GS편의점내","lat":35.154928,"lng":128.116051,"auto":"수동"}]},{"round":1170,"stores":[{"name":"토큰판매점","region":"서울","addr":"서울 강북구  도봉로 45 가판","lat":37.613151,"lng":127.02949,"auto":"수동"},{"name":"대치럭키 로또","region":"서울","addr":"서울 강남구  선릉로76길 38 1층 3호","lat":37.50213,"lng":127.053605,"auto":"수동"},{"name":"황금돼지","region":"대구","addr":"대구 수성구  용학로35길 3 (지산동)","lat":35.822671,"lng":128.628388,"auto":"반자동"},{"name":"월드복권","region":"대구","addr":"대구 서구  북비산로 98 ","lat":35.878357,"lng":128.543662,"auto":"자동"},{"name":"대박천하마트","region":"인천","addr":"인천 부평구  굴포로 48 ","lat":37.51157,"lng":126.726341,"auto":"자동"},{"name":"금빛복권","region":"울산","addr":"울산 울주군  봉화로 16 왼쪽 복권판매점","lat":35.558117,"lng":129.118395,"auto":"자동"},{"name":"로또","region":"경기","addr":"경기 포천시  죽엽산로196번길 4 ","lat":37.814645,"lng":127.160436,"auto":"수동"},{"name":"운암로또","region":"경기","addr":"경기 오산시  운암로 123 1층 101호 (오산동운암빌딩)","lat":37.15706,"lng":127.07847,"auto":"수동"},{"name":"씨유 옥정인생역전점","region":"경기","addr":"경기 양주시  화합로 1657 1층 108호(율정동)","lat":37.838893,"lng":127.090212,"auto":"자동"},{"name":"공원슈퍼","region":"경기","addr":"경기 수원시 장안구  팔달로 255 1층(영화동)","lat":37.28874,"lng":127.01298,"auto":"수동"},{"name":"태평고개 가판대","region":"경기","addr":"경기 성남시 수정구  성남대로 1282 ","lat":37.444476,"lng":127.12722,"auto":"자동"},{"name":"대박슈퍼","region":"경기","addr":"경기 부천시  원미로 103 마동 1층 103호","lat":37.491756,"lng":126.790444,"auto":"자동"},{"name":"로또맛집배은복","region":"경기","addr":"경기 김포시  풍무로 121 1층 6호","lat":37.606407,"lng":126.72207,"auto":"자동"},{"name":"엠에스리테일점","region":"강원","addr":"강원 춘천시  춘천순환로 600 MS마트 상가","lat":37.892464,"lng":127.757386,"auto":"자동"},{"name":"TO TO","region":"강원","addr":"강원 강릉시  주문로 55 ","lat":37.8889,"lng":128.825548,"auto":"자동"},{"name":"로또명당해미점","region":"충남","addr":"충남 서산시  남문2로 108 ","lat":36.71344,"lng":126.544188,"auto":"자동"},{"name":"희망복권방","region":"전남","addr":"전남 나주시  풍물시장1길 3 ","lat":34.99262,"lng":126.70952,"auto":"수동"},{"name":"NG24","region":"경북","addr":"경북 칠곡군  북중리3길 59 ","lat":36.079821,"lng":128.411828,"auto":"자동"},{"name":"월드복권방","region":"경남","addr":"경남 통영시  북신시장1길 12 월드마트 내","lat":34.856834,"lng":128.427485,"auto":"수동"},{"name":"아리아리","region":"경남","addr":"경남 김해시  김해대로2491번길 28 ","lat":35.230529,"lng":128.898685,"auto":"자동"}]},{"round":1169,"stores":[{"name":"투싼","region":"서울","addr":"서울 강남구  역삼로 310 한솔필리아 1층 127호","lat":37.499457,"lng":127.048325,"auto":"자동"},{"name":"노다지로또","region":"인천","addr":"인천 서구  완정로 179 검단제이원빌딩 108호","lat":37.602306,"lng":126.656389,"auto":"자동"},{"name":"홈돌이로또복권","region":"인천","addr":"인천 남동구  경원대로 971 삼성홈플러스간석점2층내","lat":37.469541,"lng":126.688991,"auto":"자동"},{"name":"오천억복권방","region":"광주","addr":"광주 서구  상무대로 1087 ","lat":35.152922,"lng":126.880727,"auto":"자동"},{"name":"관저중앙로또","region":"대전","addr":"대전 서구  관저동로99번길 23 편의점","lat":36.300952,"lng":127.338821,"auto":"자동"},{"name":"행운가득명당복권","region":"울산","addr":"울산 울주군  점촌5길 23 201호","lat":35.569798,"lng":129.240458,"auto":"자동"},{"name":"프랜드편의점","region":"경기","addr":"경기 화성시  3.1만세로 1100-2 ","lat":37.13201,"lng":126.907979,"auto":"자동"},{"name":"진평양행","region":"강원","addr":"강원 강릉시  임영로 107 ","lat":37.751261,"lng":128.894075,"auto":"자동"},{"name":"은혜복권방","region":"전북","addr":"전북 전주시 완산구  당산로 52 ","lat":35.832003,"lng":127.113861,"auto":"수동"},{"name":"우리복권판매점","region":"경북","addr":"경북 포항시 북구  죽파로 35-1 1층 101호","lat":36.02839,"lng":129.360324,"auto":"수동"}]},{"round":1168,"stores":[{"name":"충남상회","region":"인천","addr":"인천 미추홀구  참외전로 268 302동 B211호","lat":37.46555,"lng":126.644699,"auto":"자동"},{"name":"로또생삼겹","region":"인천","addr":"인천 남동구  논고개로 77 ","lat":37.398409,"lng":126.726234,"auto":"자동"},{"name":"복권명당","region":"대전","addr":"대전 중구  목중로 47 ","lat":36.33757,"lng":127.40925,"auto":"자동"},{"name":"초이스 로또","region":"울산","addr":"울산 남구  화합로125번길 9 CU달동초이스점내","lat":35.535621,"lng":129.339248,"auto":"자동"},{"name":"드림메드","region":"경기","addr":"경기 안산시 상록구  월피로 56 101호","lat":37.3334,"lng":126.850868,"auto":"수동"},{"name":"대박나라","region":"경기","addr":"경기 시흥시  함송로 15 111호(정왕동화신프라자)","lat":37.364038,"lng":126.730296,"auto":"자동"},{"name":"종합복권슈퍼","region":"경기","addr":"경기 시흥시  마유로 336 정일빌딩104","lat":37.345717,"lng":126.735613,"auto":"자동"},{"name":"꽃길로또방","region":"경기","addr":"경기 고양시 덕양구  꽃내음1길 21 1층 110호(향동동 청우프라자)","lat":37.600208,"lng":126.890504,"auto":"자동"},{"name":"보은로또","region":"충북","addr":"충북 보은군  보은로 140-1 ","lat":36.48669,"lng":127.718001,"auto":"자동"},{"name":"로또복권나눔커피","region":"충남","addr":"충남 아산시  모산로 163 1층","lat":36.775329,"lng":127.060737,"auto":"수동"},{"name":"우리로또복권방","region":"전남","addr":"전남 여수시  무선중앙로 71 ","lat":34.772802,"lng":127.651816,"auto":"수동"},{"name":"복권세상","region":"전남","addr":"전남 목포시  청호로 139 1층 복권세상","lat":34.803902,"lng":126.375846,"auto":"자동"},{"name":"웃는 복권방","region":"경북","addr":"경북 구미시  형곡로39길 3 102호(형곡동)","lat":36.108375,"lng":128.339873,"auto":"자동"}]},{"round":1167,"stores":[{"name":"데스콤㈜영등포영업소","region":"서울","addr":"서울 영등포구  영중로 48 ","lat":37.520576,"lng":126.905139,"auto":"자동"},{"name":"인터넷 복권판매사이트","region":"서울","addr":"동행복권(dhlottery.co.kr)","lat":37.482063,"lng":127.015788,"auto":"자동"},{"name":"서하네","region":"서울","addr":"서울 구로구  개봉로20길 66 ","lat":37.493345,"lng":126.858009,"auto":"자동"},{"name":"복권나라","region":"서울","addr":"서울 관악구  남부순환로 1739-9 ","lat":37.482788,"lng":126.943475,"auto":"자동"},{"name":"로또명당(북부점)","region":"대구","addr":"대구 서구  서대구로 318-1 ","lat":35.886025,"lng":128.557818,"auto":"자동"},{"name":"세븐일레븐 현풍대로점","region":"대구","addr":"대구 달성군  비슬로 581 세븐일레븐현풍대로점","lat":35.690543,"lng":128.444474,"auto":"반자동"},{"name":"복권나라(가좌사)","region":"인천","addr":"인천 서구  원적로 73 ","lat":37.493636,"lng":126.680596,"auto":"수동"},{"name":"행운복권","region":"인천","addr":"인천 부평구  배곶로 24 지1층 비03호(십정동 이즈라이프아파트)","lat":37.470456,"lng":126.698331,"auto":"수동"},{"name":"세븐일레븐화성봉담수기점","region":"경기","addr":"경기 화성시  세자로 356 1층 102호","lat":37.19729,"lng":126.983268,"auto":"수동"},{"name":"두꺼비복권방","region":"충남","addr":"충남 공주시  무령로 599-25 드림프라자101호","lat":36.477237,"lng":127.150392,"auto":"자동"}]},{"round":1166,"stores":[{"name":"신문가판점","region":"서울","addr":"서울 용산구  한강대로 277-3 가판","lat":37.543007,"lng":126.972376,"auto":"수동"},{"name":"신문가판점","region":"서울","addr":"서울 용산구  한강대로 277-3 가판","lat":37.543007,"lng":126.972376,"auto":"수동"},{"name":"신문가판점","region":"서울","addr":"서울 용산구  한강대로 277-3 가판","lat":37.543007,"lng":126.972376,"auto":"수동"},{"name":"신문가판점","region":"서울","addr":"서울 용산구  한강대로 277-3 가판","lat":37.543007,"lng":126.972376,"auto":"수동"},{"name":"신문가판점","region":"서울","addr":"서울 용산구  한강대로 277-3 가판","lat":37.543007,"lng":126.972376,"auto":"수동"},{"name":"6/45 로또","region":"서울","addr":"서울 강동구  아리수로93가길 87 상가 105호","lat":37.571184,"lng":127.171598,"auto":"자동"},{"name":"꿈하나","region":"대구","addr":"대구 서구  팔달로 142 1층 복권방","lat":35.889157,"lng":128.565829,"auto":"수동"},{"name":"온누리로또","region":"경기","addr":"경기 수원시 권선구  세권로 122 1층 102호","lat":37.257131,"lng":127.017456,"auto":"자동"},{"name":"대박의터","region":"강원","addr":"강원 춘천시  영서로 1786 ","lat":37.836243,"lng":127.760082,"auto":"자동"},{"name":"우두로또","region":"강원","addr":"강원 춘천시  영서로 2786 1층","lat":37.901866,"lng":127.728698,"auto":"수동"},{"name":"복동희로또 불당점","region":"충남","addr":"충남 천안시 서북구  불당5길 23 103호(콤마커피숍 내)","lat":36.803416,"lng":127.109456,"auto":"자동"},{"name":"대박로또명당","region":"충남","addr":"충남 당진시  송악로 37 ","lat":36.906907,"lng":126.693292,"auto":"수동"},{"name":"NG24","region":"경북","addr":"경북 칠곡군  북중리3길 59 ","lat":36.079821,"lng":128.411828,"auto":"자동"},{"name":"일등로또복권 판매점","region":"경북","addr":"경북 영천시  완산로 23-1 1층 복권방","lat":35.962184,"lng":128.938807,"auto":"자동"}]},{"round":1165,"stores":[{"name":"행복을향해쏴라","region":"서울","addr":"서울 노원구  동일로197길 21 1층 104호(공릉동우성빌딩)","lat":37.628408,"lng":127.070233,"auto":"수동"},{"name":"전대복권판매점","region":"광주","addr":"광주 북구  서양로 28 102호","lat":35.170662,"lng":126.9045,"auto":"자동"},{"name":"대전우표사","region":"대전","addr":"대전 동구  중앙로204번길 16-1 ","lat":36.330037,"lng":127.432072,"auto":"자동"},{"name":"아이러브마트복권방","region":"울산","addr":"울산 중구  유곡로 19-1 ","lat":35.556382,"lng":129.307248,"auto":"자동"},{"name":"홈런복권판매점","region":"경기","addr":"경기 오산시  내삼미로 93 제1층 109호","lat":37.170529,"lng":127.065771,"auto":"자동"},{"name":"대산슈퍼","region":"충남","addr":"충남 천안시 동남구  복구정3길 1 ","lat":36.76989,"lng":127.250208,"auto":"자동"},{"name":"로또명당인주점","region":"충남","addr":"충남 아산시  서해로 519-2 ","lat":36.877837,"lng":126.898279,"auto":"자동"},{"name":"베스트올수성점","region":"전북","addr":"전북 정읍시  수성2로 28 ","lat":35.581693,"lng":126.854418,"auto":"자동"},{"name":"훼미리마트 우아대로점","region":"전북","addr":"전북 전주시 덕진구  건산로 276 ","lat":35.835473,"lng":127.167355,"auto":"반자동"},{"name":"씨유 군산디오션점","region":"전북","addr":"전북 군산시  궁포1로 42 씨유 군산디오션점 내","lat":35.976942,"lng":126.742075,"auto":"자동"},{"name":"한방로또","region":"전남","addr":"전남 순천시  남산로 154-1 1층101호","lat":34.940569,"lng":127.505129,"auto":"수동"},{"name":"지에스GS오천두배점","region":"경북","addr":"경북 포항시 남구  원동로 98 1층좌측첫번째상가GS25오천두배점","lat":35.971854,"lng":129.402805,"auto":"자동"},{"name":"탐나네","region":"제주","addr":"제주 제주시  노연로 138 ","lat":33.48555,"lng":126.49506,"auto":"자동"}]},{"round":1164,"stores":[{"name":"그린슈퍼","region":"서울","addr":"서울 동대문구  왕산로 138 ","lat":37.57798,"lng":127.038632,"auto":"반자동"},{"name":"도곡 행운로또방","region":"서울","addr":"서울 강남구  도곡로4길 11 102호","lat":37.489311,"lng":127.033694,"auto":"자동"},{"name":"프로토베팅샵","region":"부산","addr":"부산 중구  국제시장2길 5 4호","lat":35.099678,"lng":129.028391,"auto":"자동"},{"name":"대영당안경원","region":"부산","addr":"부산 동래구  충렬대로237번길 9 ","lat":35.201952,"lng":129.085189,"auto":"수동"},{"name":"비에이치(BH)복권","region":"부산","addr":"부산 남구  석포로 95 ","lat":35.126292,"lng":129.089512,"auto":"자동"},{"name":"제일복권","region":"인천","addr":"인천 서구  율도로 45 ","lat":37.51384,"lng":126.667235,"auto":"수동"},{"name":"알리바이","region":"광주","addr":"광주 광산구  수등로 253 1층 알리바이","lat":35.185387,"lng":126.836674,"auto":"자동"},{"name":"복권판매점(행복드림)","region":"경기","addr":"경기 양평군  강남로 1016 나동 4호","lat":37.480437,"lng":127.484896,"auto":"자동"},{"name":"종합복권슈퍼","region":"경기","addr":"경기 시흥시  마유로 336 정일빌딩104","lat":37.345717,"lng":126.735613,"auto":"자동"},{"name":"행복한사람들 (흥부네)","region":"경기","addr":"경기 광주시  경충대로 763 ","lat":37.355196,"lng":127.327489,"auto":"자동"},{"name":"황금복권방","region":"강원","addr":"강원 원주시  봉화로 74 삼익아파트 상가 105호","lat":37.351143,"lng":127.928952,"auto":"자동"},{"name":"베스트올수성점","region":"전북","addr":"전북 정읍시  수성2로 28 ","lat":35.581693,"lng":126.854418,"auto":"자동"},{"name":"경이네복권마트","region":"경북","addr":"경북 포항시 북구  장량중앙로 81 431동117호삼구트리니엔4차상가","lat":36.090386,"lng":129.392483,"auto":"자동"}]},{"round":1163,"stores":[{"name":"묵동식품","region":"서울","addr":"서울 중랑구  동일로 919 ","lat":37.612457,"lng":127.07704,"auto":"자동"},{"name":"인터넷 복권판매사이트","region":"서울","addr":"동행복권(dhlottery.co.kr)","lat":37.482063,"lng":127.015788,"auto":"자동"},{"name":"복권나라","region":"서울","addr":"서울 관악구  남부순환로 1739-9 ","lat":37.482788,"lng":126.943475,"auto":"자동"},{"name":"금용","region":"서울","addr":"서울 강북구  4.19로 1 1층","lat":37.648088,"lng":127.014074,"auto":"수동"},{"name":"돈벼락맞는곳","region":"부산","addr":"부산 서구  구덕로 194 ","lat":35.101922,"lng":129.02007,"auto":"자동"},{"name":"황금복권","region":"인천","addr":"인천 계양구  장제로 889-1 ","lat":37.546378,"lng":126.739424,"auto":"반자동"},{"name":"주택복권방","region":"경기","addr":"경기 용인시 수지구  풍덕천로 144-1 103호","lat":37.323883,"lng":127.09745,"auto":"수동"},{"name":"양말 란제리","region":"경기","addr":"경기 안양시 만안구  장내로 125 1층 상가2호 전부","lat":37.397149,"lng":126.92164,"auto":"자동"},{"name":"로또명당카페","region":"경기","addr":"경기 시흥시  거북섬2길 21 1층 103호","lat":37.326875,"lng":126.677055,"auto":"수동"},{"name":"행운대박복권방","region":"경기","addr":"경기 남양주시  광릉내로 17 ","lat":37.742253,"lng":127.197826,"auto":"수동"},{"name":"로또복권두정점","region":"충남","addr":"충남 천안시 서북구  두정로 251 대원빌딩104호","lat":36.833517,"lng":127.144988,"auto":"자동"},{"name":"내포복권방","region":"충남","addr":"충남 예산군  덕산온천로 387 ","lat":36.701049,"lng":126.665614,"auto":"자동"},{"name":"GS25예산서오점복권","region":"충남","addr":"충남 예산군  역전로 150-2 GS25편의점 내","lat":36.692393,"lng":126.830369,"auto":"자동"},{"name":"포항오거리CU복권","region":"경북","addr":"경북 포항시 북구  죽도로 33 CU포항오거리점내","lat":36.033836,"lng":129.364675,"auto":"자동"},{"name":"비휴 복권판매점","region":"경남","addr":"경남 산청군  지리산대로 3474-1 1층","lat":35.303306,"lng":127.971877,"auto":"자동"}]},{"round":1162,"stores":[{"name":"서울복권방","region":"서울","addr":"서울 중랑구  동일로 809-1 ","lat":37.602691,"lng":127.078947,"auto":"수동"},{"name":"오케이상사","region":"서울","addr":"서울 서초구  신반포로 176 센트럴시티내100호매점","lat":37.505552,"lng":127.003566,"auto":"자동"},{"name":"엔마트","region":"서울","addr":"서울 동대문구  장한로31길 10 ","lat":37.575423,"lng":127.071296,"auto":"수동"},{"name":"소망복권","region":"서울","addr":"서울 구로구  경인로35길 83 1층 101호(고척동)","lat":37.500151,"lng":126.852353,"auto":"자동"},{"name":"다모아복권","region":"서울","addr":"서울 구로구  경인로19길 4 ","lat":37.495924,"lng":126.842779,"auto":"자동"},{"name":"대교복권판매점","region":"부산","addr":"부산 영도구  절영로13번길 17 ","lat":35.092839,"lng":129.041098,"auto":"자동"},{"name":"복터진날","region":"부산","addr":"부산 사하구  장림로 162-1 복권판매점","lat":35.082375,"lng":128.966879,"auto":"반자동"},{"name":"노다지복권방","region":"부산","addr":"부산 북구  낙동대로 1704 ","lat":35.206567,"lng":128.99719,"auto":"수동"},{"name":"대구연쇄점","region":"부산","addr":"부산 부산진구  중앙대로783번길 8 ","lat":35.162385,"lng":129.062377,"auto":"수동"},{"name":"상인명당복권방","region":"대구","addr":"대구 달서구  조암남로16길 19 1동 1층 118호","lat":35.821714,"lng":128.52326,"auto":"자동"},{"name":"로또 명당","region":"인천","addr":"인천 남동구  구월남로 271 102호","lat":37.452297,"lng":126.719881,"auto":"수동"},{"name":"행운 마트","region":"인천","addr":"인천 남동구  만수로 65 ","lat":37.461593,"lng":126.735089,"auto":"수동"},{"name":"루루사진관","region":"인천","addr":"인천 계양구  굴재방터길 27 1호 루루사진관","lat":37.566971,"lng":126.74761,"auto":"수동"},{"name":"삼성포토랜드","region":"인천","addr":"인천 강화군  북문길 6 ","lat":37.748339,"lng":126.484018,"auto":"수동"},{"name":"일등복권방","region":"울산","addr":"울산 남구  삼산중로 20 ","lat":35.535359,"lng":129.33666,"auto":"수동"},{"name":"신리천왕대박복권","region":"경기","addr":"경기 화성시  왕배산2길 11-1 102호","lat":37.180058,"lng":127.1254,"auto":"반자동"},{"name":"성강동인","region":"경기","addr":"경기 하남시  신장로 212 1층 2호","lat":37.543922,"lng":127.198273,"auto":"수동"},{"name":"인생역전","region":"경기","addr":"경기 파주시  새꽃로 227 7호","lat":37.766688,"lng":126.777351,"auto":"수동"},{"name":"강남슈퍼","region":"경기","addr":"경기 의정부시  의정로 193 ","lat":37.750083,"lng":127.034041,"auto":"수동"},{"name":"좋은터","region":"경기","addr":"경기 의정부시  동일로454번길 19 1층(신곡동)","lat":37.728825,"lng":127.060548,"auto":"수동"},{"name":"로또판매선부점","region":"경기","addr":"경기 안산시 단원구  선부광장로 27 122-2호","lat":37.33619,"lng":126.81017,"auto":"수동"},{"name":"송내매표소","region":"경기","addr":"경기 부천시  송내대로 37 104호","lat":37.48689,"lng":126.752828,"auto":"수동"},{"name":"예스복권방","region":"경기","addr":"경기 남양주시  별내중앙로 56 메인프라자 1층 105호","lat":37.647551,"lng":127.123713,"auto":"수동"},{"name":"한아름 복권","region":"경기","addr":"경기 김포시  장차로 19 102호","lat":37.603812,"lng":126.770535,"auto":"자동"},{"name":"행복한사람들 (흥부네)","region":"경기","addr":"경기 광주시  경충대로 763 ","lat":37.355196,"lng":127.327489,"auto":"수동"},{"name":"대복로또","region":"강원","addr":"강원 원주시  나비허리길 120-19 1층","lat":37.319701,"lng":127.962055,"auto":"수동"},{"name":"대박찬스","region":"충북","addr":"충북 청주시 흥덕구  가경로161번길 3 ","lat":36.628974,"lng":127.436443,"auto":"수동"},{"name":"왕대박복권방","region":"충북","addr":"충북 청주시 청원구  두릉유리로 1119 ","lat":36.741097,"lng":127.453437,"auto":"수동"},{"name":"팡팡복권방","region":"충북","addr":"충북 진천군  장기길 102 ","lat":36.990017,"lng":127.445277,"auto":"자동"},{"name":"서울로또방","region":"충북","addr":"충북 옥천군  삼금로 8 ","lat":36.299492,"lng":127.566681,"auto":"자동"},{"name":"충청복권전문점","region":"충남","addr":"충남 천안시 서북구  성환2로 108 ","lat":36.91694,"lng":127.132839,"auto":"수동"},{"name":"이마트24아산도고명당점","region":"충남","addr":"충남 아산시  온천대로 104 ","lat":36.746343,"lng":126.86689,"auto":"자동"},{"name":"찬누리","region":"충남","addr":"충남 부여군  사비로 61 ","lat":36.277967,"lng":126.910311,"auto":"자동"},{"name":"로또편의점","region":"전남","addr":"전남 강진군  보은로 115 ","lat":34.636951,"lng":126.771381,"auto":"수동"},{"name":"레인보우","region":"경북","addr":"경북 경산시  성동로 16 101호","lat":35.836172,"lng":128.725576,"auto":"수동"},{"name":"네잎크로버복권방","region":"제주","addr":"제주 서귀포시  고성오조로 9 ","lat":33.44472,"lng":126.91338,"auto":"자동"}]},{"round":1161,"stores":[{"name":"신일","region":"서울","addr":"서울 강서구  까치산로 177 1층 101호","lat":37.553062,"lng":126.853342,"auto":"자동"},{"name":"드림복권방","region":"인천","addr":"인천 연수구  아트센터대로168번길 100 G동 180호(송도동한라 웨스턴파크 송도)","lat":37.405178,"lng":126.62886,"auto":"자동"},{"name":"복권왕국","region":"인천","addr":"인천 부평구  부흥로 359 1층","lat":37.49818,"lng":126.731926,"auto":"자동"},{"name":"대박신화복권판매점","region":"인천","addr":"인천 미추홀구  인하로 267 ","lat":37.448309,"lng":126.677798,"auto":"수동"},{"name":"동행로또복권판매","region":"인천","addr":"인천 동구  화도진로 33-1 1층","lat":37.475679,"lng":126.634139,"auto":"자동"},{"name":"이마트24중울산점","region":"울산","addr":"울산 중구  옥골샘4길 21 ","lat":35.557142,"lng":129.323823,"auto":"수동"},{"name":"복권나라","region":"경기","addr":"경기 오산시  성호대로93번길 27 ","lat":37.151246,"lng":127.071452,"auto":"수동"},{"name":"느낌 복권판매점","region":"경기","addr":"경기 안산시 상록구  용신로 328 ","lat":37.301681,"lng":126.858227,"auto":"자동"},{"name":"대선세무경영사무소","region":"경기","addr":"경기 안산시 상록구  석호로 189 101호","lat":37.295924,"lng":126.852531,"auto":"수동"},{"name":"종합복권슈퍼","region":"경기","addr":"경기 시흥시  마유로 336 정일빌딩104","lat":37.345717,"lng":126.735613,"auto":"자동"},{"name":"종합복권슈퍼","region":"경기","addr":"경기 시흥시  마유로 336 정일빌딩104","lat":37.345717,"lng":126.735613,"auto":"자동"},{"name":"46중통 로또판매점","region":"경기","addr":"경기 시흥시  중심상가로 39 106호","lat":37.352854,"lng":126.722903,"auto":"수동"},{"name":"대길복권","region":"경기","addr":"경기 수원시 장안구  서부로 2129-1 1층 (율전동)","lat":37.298745,"lng":126.971305,"auto":"자동"},{"name":"세븐복권","region":"충북","addr":"충북 증평군  초중6길 19 1층(세븐일레븐 내)","lat":36.776863,"lng":127.569044,"auto":"수동"},{"name":"복조리복권방","region":"전북","addr":"전북 장수군  장계천변길 55-4 ","lat":35.731015,"lng":127.583521,"auto":"자동"},{"name":"로또복권 포항IC점","region":"경북","addr":"경북 포항시 북구  새마을로 340 세븐일레븐 옆","lat":36.045874,"lng":129.327768,"auto":"자동"}]},{"round":1160,"stores":[{"name":"천하명당복권","region":"대구","addr":"대구 북구  칠곡중앙대로 545 ","lat":35.944319,"lng":128.550637,"auto":"자동"},{"name":"열정복권","region":"광주","addr":"광주 북구  하남대로 821 1층","lat":35.171238,"lng":126.882499,"auto":"자동"},{"name":"8888로또","region":"대전","addr":"대전 서구  월평북로 77 ","lat":36.362502,"lng":127.376811,"auto":"자동"},{"name":"한꿈복권방","region":"울산","addr":"울산 중구  번영로 586 ","lat":35.568793,"lng":129.345885,"auto":"자동"},{"name":"로또대박","region":"세종","addr":"세종   장척로 571 ","lat":36.499294,"lng":127.221313,"auto":"수동"},{"name":"버스표가판점","region":"경기","addr":"경기 안양시 만안구  안양로 366 ","lat":37.404003,"lng":126.917431,"auto":"수동"},{"name":"다니엘사","region":"경기","addr":"경기 안산시 단원구  원선1로 38 101호","lat":37.326073,"lng":126.804168,"auto":"자동"},{"name":"장미슈퍼","region":"충남","addr":"충남 부여군  계백로 265 부여군청 로터리 부근","lat":36.276292,"lng":126.909405,"auto":"자동"},{"name":"터미널복권방","region":"전북","addr":"전북 정읍시  연지8길 6 ","lat":35.57231,"lng":126.844993,"auto":"자동"},{"name":"좋은사람들로또","region":"전남","addr":"전남 보성군  현충로 85 ","lat":34.767428,"lng":127.081056,"auto":"자동"},{"name":"로그인복권방","region":"경북","addr":"경북 구미시  상사동로 149-4 사곡동","lat":36.097961,"lng":128.358781,"auto":"반자동"},{"name":"무지개로또복권","region":"경남","addr":"경남 양산시  덕계2길 17 좌측 복권판매점","lat":35.37062,"lng":129.14658,"auto":"자동"}]},{"round":1159,"stores":[{"name":"금나와라뚝딱","region":"서울","addr":"서울 성북구  오패산로 57 1층","lat":37.607333,"lng":127.03621,"auto":"반자동"},{"name":"교통카드","region":"서울","addr":"서울 서초구  강남대로 517 ","lat":37.508098,"lng":127.022252,"auto":"수동"},{"name":"드림로또","region":"서울","addr":"서울 서초구  신반포로 194 쇼케이스12호","lat":37.505509,"lng":127.007038,"auto":"반자동"},{"name":"그랜드마트앞가판점","region":"서울","addr":"서울 마포구  신촌로 94 ","lat":37.554991,"lng":126.93599,"auto":"자동"},{"name":"서울복권명당","region":"서울","addr":"서울 강북구  삼양로 194 1층","lat":37.621186,"lng":127.020734,"auto":"수동"},{"name":"오륜","region":"부산","addr":"부산 금정구  체육공원로 591 복권판매점","lat":35.293481,"lng":129.111246,"auto":"수동"},{"name":"복권명당","region":"대구","addr":"대구 동구  경안로 751 ","lat":35.869483,"lng":128.713485,"auto":"수동"},{"name":"버스매표소","region":"인천","addr":"인천 부평구  부평대로 3 가판","lat":37.49181,"lng":126.722722,"auto":"자동"},{"name":"온천로또방","region":"대전","addr":"대전 유성구  계룡로 92 1층 101-3호","lat":36.353638,"lng":127.341189,"auto":"수동"},{"name":"하늘로또","region":"경기","addr":"경기 여주시  세종로475번길 2 1층","lat":37.257895,"lng":127.646419,"auto":"수동"},{"name":"1등 되는날","region":"경기","addr":"경기 안성시  기업단지로 2 1층","lat":36.999329,"lng":127.163181,"auto":"수동"},{"name":"홈플러스선부점로또판매","region":"경기","addr":"경기 안산시 단원구  삼일로 316 ","lat":37.333821,"lng":126.8121,"auto":"자동"},{"name":"다니엘사","region":"경기","addr":"경기 안산시 단원구  원선1로 38 101호","lat":37.326073,"lng":126.804168,"auto":"수동"},{"name":"다니엘사","region":"경기","addr":"경기 안산시 단원구  원선1로 38 101호","lat":37.326073,"lng":126.804168,"auto":"수동"},{"name":"다니엘사","region":"경기","addr":"경기 안산시 단원구  원선1로 38 101호","lat":37.326073,"lng":126.804168,"auto":"수동"},{"name":"다니엘사","region":"경기","addr":"경기 안산시 단원구  원선1로 38 101호","lat":37.326073,"lng":126.804168,"auto":"수동"},{"name":"다니엘사","region":"경기","addr":"경기 안산시 단원구  원선1로 38 101호","lat":37.326073,"lng":126.804168,"auto":"수동"},{"name":"두근두근로또복권","region":"경기","addr":"경기 고양시 일산동구  일산로 453 1층 106호","lat":37.673713,"lng":126.776267,"auto":"수동"},{"name":"행복복권방","region":"충북","addr":"충북 청주시 흥덕구  풍년로 26 ","lat":36.616011,"lng":127.44104,"auto":"자동"},{"name":"대박로또","region":"충남","addr":"충남 천안시 서북구  성환2로 45 ","lat":36.911733,"lng":127.130163,"auto":"자동"},{"name":"나눔로또","region":"경남","addr":"경남 함안군  용산1길 33 1층","lat":35.308948,"lng":128.516931,"auto":"수동"},{"name":"경일통신","region":"경남","addr":"경남 창원시 마산회원구  북성로 340 ","lat":35.233823,"lng":128.56064,"auto":"자동"},{"name":"똥꿈로또","region":"경남","addr":"경남 진주시  신안로 102 ","lat":35.187218,"lng":128.070838,"auto":"자동"}]},{"round":1158,"stores":[{"name":"로또킹","region":"서울","addr":"서울 영등포구  영중로 2 1층(영등포동3가)","lat":37.516742,"lng":126.906749,"auto":"자동"},{"name":"행운명당","region":"서울","addr":"서울 양천구  신월로 302 1층","lat":37.521099,"lng":126.854387,"auto":"수동"},{"name":"한경종합광고","region":"서울","addr":"서울 송파구  백제고분로 198 ","lat":37.503928,"lng":127.088544,"auto":"반자동"},{"name":"데이앤나잇","region":"서울","addr":"서울 성북구  종암로 132 종암우림카이저팰리스 1층 101호","lat":37.601955,"lng":127.033463,"auto":"자동"},{"name":"마카로또","region":"서울","addr":"서울 서초구  서초대로 279 1층","lat":37.49346,"lng":127.01218,"auto":"자동"},{"name":"인터넷 복권판매사이트","region":"서울","addr":"동행복권(dhlottery.co.kr)","lat":37.482063,"lng":127.015788,"auto":"수동"},{"name":"로또판매점","region":"부산","addr":"부산 사하구  승학로284번길 42 ","lat":35.102422,"lng":128.997793,"auto":"자동"},{"name":"대박복권방","region":"인천","addr":"인천 서구  길주로 106 1층 (석남동)","lat":37.506198,"lng":126.673602,"auto":"자동"},{"name":"대박복권방","region":"광주","addr":"광주 동구  남문로 561 대박복권방","lat":35.121107,"lng":126.93298,"auto":"반자동"},{"name":"온천로또방","region":"대전","addr":"대전 유성구  계룡로 92 1층 101-3호","lat":36.353638,"lng":127.341189,"auto":"자동"},{"name":"행운을주는로또판매점","region":"경기","addr":"경기 안산시 단원구  초지로 90 태영프라자111호","lat":37.306879,"lng":126.815107,"auto":"자동"},{"name":"메가마트","region":"경기","addr":"경기 시흥시  정왕대로 64 메가쇼핑몰1층123호","lat":37.354102,"lng":126.72363,"auto":"수동"},{"name":"메가마트","region":"경기","addr":"경기 시흥시  정왕대로 64 메가쇼핑몰1층123호","lat":37.354102,"lng":126.72363,"auto":"수동"},{"name":"설악복권방","region":"경기","addr":"경기 가평군  신천중앙로 80 1층 복권방","lat":37.675832,"lng":127.494077,"auto":"수동"},{"name":"드림복권방","region":"충북","addr":"충북 청주시 흥덕구  내수동로42번길 4 ","lat":36.632573,"lng":127.452036,"auto":"자동"},{"name":"안면대박복권방","region":"충남","addr":"충남 태안군  안면대로 2649 2동 2호","lat":36.766157,"lng":126.28594,"auto":"자동"},{"name":"로또로복권","region":"전북","addr":"전북 전주시 완산구  모악로 4729 ","lat":35.791546,"lng":127.131295,"auto":"자동"},{"name":"대광복권방","region":"전남","addr":"전남 화순군  칠충로 55 대광그린상가동 1층109호","lat":35.055482,"lng":126.977122,"auto":"자동"},{"name":"나눔로또편의점","region":"전남","addr":"전남 광양시  공영로 90 ","lat":34.935659,"lng":127.699065,"auto":"자동"},{"name":"비산강변파라디아복권","region":"경북","addr":"경북 구미시  신비로 95 A동103호(공단동강변파리디아)","lat":36.121342,"lng":128.372833,"auto":"수동"},{"name":"탑로또","region":"경남","addr":"경남 거제시  거제중앙로 1787 서원탑훼밀리마트고현점 내(계룡온천옆)","lat":34.878452,"lng":128.62806,"auto":"수동"}]},{"round":1157,"stores":[{"name":"예지행복","region":"서울","addr":"서울 양천구  월정로 59 가동 101호","lat":37.524852,"lng":126.841315,"auto":"반자동"},{"name":"NBA(엔비에이)","region":"인천","addr":"인천 중구  신도시남로142번길 6 1동 1층 128호","lat":37.4934,"lng":126.49157,"auto":"자동"},{"name":"당하복권명당","region":"인천","addr":"인천 서구  서곶로 788 ","lat":37.587938,"lng":126.67538,"auto":"자동"},{"name":"돈돈복권방","region":"대전","addr":"대전 서구  계룡로 560 ","lat":36.342228,"lng":127.385846,"auto":"자동"},{"name":"천하명당안산","region":"경기","addr":"경기 안산시 상록구  수인로 2020 103호","lat":37.36354,"lng":126.876232,"auto":"수동"},{"name":"복권명당","region":"경기","addr":"경기 안산시 단원구  선부로 258 102호","lat":37.341152,"lng":126.823626,"auto":"수동"},{"name":"명당복권방","region":"경기","addr":"경기 남양주시  창현로 7 ","lat":37.650213,"lng":127.306244,"auto":"수동"},{"name":"팬시코아","region":"경기","addr":"경기 남양주시  퇴계원로 46-1 ","lat":37.650974,"lng":127.142176,"auto":"수동"},{"name":"행운 복권","region":"강원","addr":"강원 동해시  임항로 55 상가동 202-5 가나호(부곡동삼정2차아파트)","lat":37.538921,"lng":129.107854,"auto":"반자동"},{"name":"돈방석","region":"전북","addr":"전북 전주시 완산구  서신로 35 ","lat":35.828547,"lng":127.115581,"auto":"자동"},{"name":"중앙복권","region":"전남","addr":"전남 신안군  구영2길 74 1층","lat":34.886765,"lng":126.044316,"auto":"자동"},{"name":"제일복권","region":"제주","addr":"제주 제주시  서광로 257 ","lat":33.500101,"lng":126.524055,"auto":"자동"}]},{"round":1156,"stores":[{"name":"정원복권방","region":"서울","addr":"서울 도봉구  도봉로 468 1층 101-3호","lat":37.647375,"lng":127.034418,"auto":"자동"},{"name":"꾸미로또복권","region":"서울","addr":"서울 강북구  솔샘로67길 118 1층","lat":37.622311,"lng":127.02696,"auto":"수동"},